ID,Name,City,Country,IATA,Lat,Long
1,Goroka Airport,Goroka,Papua New Guinea,GKA,-6.0816898345900015,145.391998291
2,Madang Airport,Madang,Papua New Guinea,MAG,-5.20707988739,145.789001465
3,Mount Hagen Kagamuga Airport,Mount Hagen,Papua New Guinea,HGU,-5.826789855957031,144.29600524902344
4,Nadzab Airport,Nadzab,Papua New Guinea,LAE,-6.569803,146.725977
5,Port Moresby Jacksons International Airport,Port Moresby,Papua New Guinea,POM,-9.443380355834961,147.22000122070312
6,Wewak International Airport,Wewak,Papua New Guinea,WWK,-3.5838301181800003,143.66900634799998
7,Narsarsuaq Airport,Narssarssuaq,Greenland,UAK,61.1604995728,-45.4259986877
8,Godthaab / Nuuk Airport,Godthaab,Greenland,GOH,64.19090271,-51.678100585900005
9,Kangerlussuaq Airport,Sondrestrom,Greenland,SFJ,67.0122218992,-50.7116031647
10,Thule Air Base,Thule,Greenland,THU,76.5311965942,-68.70320129390001
11,Akureyri Airport,Akureyri,Iceland,AEY,65.66000366210939,-18.07270050048828
12,Egilsstaðir Airport,Egilsstadir,Iceland,EGS,65.28330230712889,-14.401399612426758
13,Hornafjörður Airport,Hofn,Iceland,HFN,64.295601,-15.2272
14,Húsavík Airport,Husavik,Iceland,HZK,65.952301,-17.426001
15,Ísafjörður Airport,Isafjordur,Iceland,IFJ,66.05809783935547,-23.13529968261719
16,Keflavik International Airport,Keflavik,Iceland,KEF,63.985000610352,-22.605600357055998
17,Patreksfjörður Airport,Patreksfjordur,Iceland,PFJ,65.555801,-23.965
18,Reykjavik Airport,Reykjavik,Iceland,RKV,64.1299972534,-21.9405994415
19,Siglufjörður Airport,Siglufjordur,Iceland,SIJ,66.133301,-18.9167
20,Vestmannaeyjar Airport,Vestmannaeyjar,Iceland,VEY,63.42430114746094,-20.27890014648437
21,Sault Ste Marie Airport,Sault Sainte Marie,Canada,YAM,46.48500061035156,-84.5093994140625
22,Winnipeg / St. Andrews Airport,Winnipeg,Canada,\N,50.0564002991,-97.0325012207
23,Halifax / CFB Shearwater Heliport,Halifax,Canada,\N,44.639702,-63.499401
24,St. Anthony Airport,St. Anthony,Canada,YAY,51.391899108900006,-56.083099365200006
25,Tofino / Long Beach Airport,Tofino,Canada,YAZ,49.079833,-125.77558300000001
26,Kugaaruk Airport,Pelly Bay,Canada,YBB,68.534401,-89.808098
27,Baie Comeau Airport,Baie Comeau,Canada,YBC,49.13249969482422,-68.20439910888672
28,CFB Bagotville,Bagotville,Canada,YBG,48.33060073852539,-70.99639892578125
29,Baker Lake Airport,Baker Lake,Canada,YBK,64.29889678960001,-96.077796936
30,Campbell River Airport,Campbell River,Canada,YBL,49.95080184936523,-125.27100372314452
31,Brandon Municipal Airport,Brandon,Canada,YBR,49.91,-99.951897
32,Cambridge Bay Airport,Cambridge Bay,Canada,YCB,69.1081008911,-105.13800048799999
33,Nanaimo Airport,Nanaimo,Canada,YCD,49.054970224899996,-123.869862556
34,Castlegar/West Kootenay Regional Airport,Castlegar,Canada,YCG,49.296398162799996,-117.63200378399999
35,Miramichi Airport,Chatham,Canada,YCH,47.007801,-65.449203
36,Charlo Airport,Charlo,Canada,YCL,47.990798999999996,-66.330299
37,Kugluktuk Airport,Coppermine,Canada,YCO,67.816704,-115.143997
38,Coronation Airport,Coronation,Canada,YCT,52.0750007629,-111.444999695
39,Chilliwack Airport,Chilliwack,Canada,YCW,49.1528015137,-121.93900299100001
40,Clyde River Airport,Clyde River,Canada,YCY,70.4860992432,-68.5167007446
41,Coral Harbour Airport,Coral Harbour,Canada,YZS,64.1932983398,-83.3593978882
42,Dawson City Airport,Dawson,Canada,YDA,64.04309844970703,-139.12800598144528
43,Burwash Airport,Burwash,Canada,YDB,61.37110137939453,-139.04100036621094
44,Princeton Airport,Princeton,Canada,\N,49.468101501499994,-120.51100158700001
45,Deer Lake Airport,Deer Lake,Canada,YDF,49.21080017089844,-57.39139938354492
46,Dease Lake Airport,Dease Lake,Canada,YDL,58.4221992493,-130.031997681
47,Dauphin Barker Airport,Dauphin,Canada,YDN,51.10079956054688,-100.052001953125
48,Dawson Creek Airport,Dawson Creek,Canada,YDQ,55.7422981262207,-120.18299865722656
49,Edmonton International Airport,Edmonton,Canada,YEG,53.309700012200004,-113.580001831
50,Arviat Airport,Eskimo Point,Canada,YEK,61.0942001343,-94.0708007812
51,Estevan Airport,Estevan,Canada,YEN,49.210300445600005,-102.96600341799999
52,Edson Airport,Edson,Canada,YET,53.5788993835,-116.46499633799999
53,Eureka Airport,Eureka,Canada,YEU,79.9946975708,-85.814201355
54,Inuvik Mike Zubko Airport,Inuvik,Canada,YEV,68.30419921880001,-133.483001709
55,Iqaluit Airport,Iqaluit,Canada,YFB,63.756402,-68.555801
56,Fredericton Airport,Fredericton,Canada,YFC,45.86890029907226,-66.53720092773439
57,Forestville Airport,Forestville,Canada,YFE,48.74610137939453,-69.09719848632811
58,Flin Flon Airport,Flin Flon,Canada,YFO,54.6781005859375,-101.68199920654295
59,Fort Resolution Airport,Fort Resolution,Canada,YFR,61.1808013916,-113.690002441
60,Fort Simpson Airport,Fort Simpson,Canada,YFS,61.76020050048828,-121.23699951171876
61,Kingston Norman Rogers Airport,Kingston,Canada,YGK,44.22529983520508,-76.5969009399414
62,La Grande Rivière Airport,La Grande Riviere,Canada,YGL,53.62530136108398,-77.7042007446289
63,Gaspé (Michel-Pouliot) Airport,Gaspe,Canada,YGP,48.775299072299994,-64.4785995483
64,Geraldton Greenstone Regional Airport,Geraldton,Canada,YGQ,49.77830123901367,-86.93939971923828
65,Îles-de-la-Madeleine Airport,Iles De La Madeleine,Canada,YGR,47.42470169067383,-61.778099060058594
66,Hudson Bay Airport,Hudson Bay,Canada,YHB,52.8166999817,-102.31099700899999
67,Dryden Regional Airport,Dryden,Canada,YHD,49.831699,-92.744202
68,Ulukhaktok Holman Airport,Holman Island,Canada,YHI,70.76280212402344,-117.80599975585938
69,Gjoa Haven Airport,Gjoa Haven,Canada,YHK,68.635597229,-95.8497009277
70,John C. Munro Hamilton International Airport,Hamilton,Canada,YHM,43.173599243199995,-79.93499755859999
71,Montréal / Saint-Hubert Airport,Montreal,Canada,YHU,45.5175018311,-73.4169006348
72,Hay River / Merlyn Carter Airport,Hay River,Canada,YHY,60.8396987915,-115.782997131
73,Halifax / Stanfield International Airport,Halifax,Canada,YHZ,44.880798339799995,-63.508598327600005
74,Atikokan Municipal Airport,Atikokan,Canada,YIB,48.7738990784,-91.6386032104
75,Pond Inlet Airport,Pond Inlet,Canada,YIO,72.6832962036,-77.9666976929
76,St Jean Airport,St. Jean,Canada,YJN,45.29439926147461,-73.28109741210938
77,Stephenville Airport,Stephenville,Canada,YJT,48.5442008972168,-58.54999923706055
78,Kamloops Airport,Kamloops,Canada,YKA,50.702201843299996,-120.444000244
79,Waterloo Airport,Waterloo,Canada,YKF,43.4608001709,-80.3786010742
80,Schefferville Airport,Schefferville,Canada,YKL,54.80530166625977,-66.8052978515625
81,Kindersley Airport,Kindersley,Canada,YKY,51.5175018311,-109.180999756
82,Buttonville Municipal Airport,Toronto,Canada,YKZ,43.86220169067383,-79.37000274658203
83,Chapleau Airport,Chapleau,Canada,YLD,47.81999969482422,-83.3467025756836
84,Meadow Lake Airport,Meadow Lake,Canada,YLJ,54.12530136108398,-108.52300262451172
85,Lloydminster Airport,Lloydminster,Canada,YLL,53.30920028686523,-110.072998046875
86,Alert Airport,Alert,Canada,YLT,82.51779937740001,-62.280601501499994
87,Kelowna International Airport,Kelowna,Canada,YLW,49.9561004639,-119.377998352
88,Mayo Airport,Mayo,Canada,YMA,63.61640167236328,-135.86799621582028
89,Moose Jaw Air Vice Marshal C. M. McEwen Airport,Moose Jaw,Canada,YMJ,50.330299377441406,-105.55899810791016
90,Fort McMurray Airport,Fort Mcmurray,Canada,YMM,56.653301238999994,-111.22200012200001
91,Moosonee Airport,Moosonee,Canada,YMO,51.291099548339844,-80.60780334472656
92,Maniwaki Airport,Maniwaki,Canada,YMW,46.272800445600005,-75.9906005859
93,Montreal International (Mirabel) Airport,Montreal,Canada,YMX,45.679501,-74.038696
94,Natashquan Airport,Natashquan,Canada,YNA,50.18999862670898,-61.78919982910156
95,Ottawa / Gatineau Airport,Gatineau,Canada,YND,45.5217018127,-75.5635986328
96,Matagami Airport,Matagami,Canada,YNM,49.76169967651367,-77.80280303955078
97,Old Crow Airport,Old Crow,Canada,YOC,67.57060241699219,-139.83900451660156
98,CFB Cold Lake,Cold Lake,Canada,YOD,54.40499877929688,-110.27899932861328
99,High Level Airport,High Level,Canada,YOJ,58.62139892578125,-117.16500091552734
100,Ottawa Macdonald-Cartier International Airport,Ottawa,Canada,YOW,45.3224983215332,-75.66919708251953
101,Prince Albert Glass Field,Prince Albert,Canada,YPA,53.214199066199996,-105.672996521
102,Peace River Airport,Peace River,Canada,YPE,56.226898,-117.446999
103,Southport Airport,Portage-la-prairie,Canada,YPG,49.903099,-98.27381700000001
104,Pitt Meadows Airport,Pitt Meadows,Canada,\N,49.21609878540039,-122.70999908447266
105,Pickle Lake Airport,Pickle Lake,Canada,YPL,51.4463996887207,-90.21420288085938
106,Port Menier Airport,Port Menier,Canada,YPN,49.83639907836914,-64.28859710693361
107,Peterborough Airport,Peterborough,Canada,YPQ,44.22999954223633,-78.36329650878906
108,Prince Rupert Airport,Prince Pupert,Canada,YPR,54.2860984802,-130.445007324
109,Fort Chipewyan Airport,Fort Chipewyan,Canada,YPY,58.7672004699707,-111.11699676513672
110,Muskoka Airport,Muskoka,Canada,YQA,44.974700927734375,-79.30329895019531
111,Quebec Jean Lesage International Airport,Quebec,Canada,YQB,46.7911,-71.393303
112,Red Deer Regional Airport,Red Deer Industrial,Canada,YQF,52.18220138549805,-113.8939971923828
113,Windsor Airport,Windsor,Canada,YQG,42.27560043334961,-82.95559692382812
114,Watson Lake Airport,Watson Lake,Canada,YQH,60.11640167236328,-128.82200622558594
115,Kenora Airport,Kenora,Canada,YQK,49.78829956054688,-94.36309814453124
116,Lethbridge County Airport,Lethbridge,Canada,YQL,49.6302986145,-112.80000305200001
117,Greater Moncton International Airport,Moncton,Canada,YQM,46.11220169067383,-64.67859649658203
119,Comox Airport,Comox,Canada,YQQ,49.71080017089844,-124.88700103759766
120,Regina International Airport,Regina,Canada,YQR,50.43190002441406,-104.66600036621094
121,Thunder Bay Airport,Thunder Bay,Canada,YQT,48.37189865112305,-89.32389831542969
122,Grande Prairie Airport,Grande Prairie,Canada,YQU,55.1796989441,-118.885002136
123,Yorkton Municipal Airport,Yorkton,Canada,YQV,51.26470184326172,-102.46199798583984
124,North Battleford Airport,North Battleford,Canada,YQW,52.76919937133789,-108.24400329589844
125,Gander International Airport,Gander,Canada,YQX,48.9369010925293,-54.56809997558594
126,Sydney / J.A. Douglas McCurdy Airport,Sydney,Canada,YQY,46.1614,-60.047798
127,Quesnel Airport,Quesnel,Canada,YQZ,53.026100158691406,-122.51000213623048
128,Resolute Bay Airport,Resolute,Canada,YRB,74.71690368649999,-94.9693984985
129,Rivière-du-Loup Airport,Riviere Du Loup,Canada,YRI,47.76440048217773,-69.58470153808594
130,Roberval Airport,Roberval,Canada,YRJ,48.52000045776367,-72.2656021118164
131,Rocky Mountain House Airport,Rocky Mountain House,Canada,YRM,52.4296989441,-114.903999329
132,Rankin Inlet Airport,Rankin Inlet,Canada,YRT,62.811401367200006,-92.1157989502
133,Sudbury Airport,Sudbury,Canada,YSB,46.625,-80.79889678955078
134,Sherbrooke Airport,Sherbrooke,Canada,YSC,45.4385986328125,-71.69139862060547
135,Saint John Airport,St. John,Canada,YSJ,45.31610107421875,-65.89029693603516
136,Fort Smith Airport,Fort Smith,Canada,YSM,60.020301818847656,-111.96199798583984
137,Nanisivik Airport,Nanisivik,Canada,YSR,72.982201,-84.613602
138,Summerside Airport,Summerside,Canada,YSU,46.44060134887695,-63.83359909057617
139,Sachs Harbour (David Nasogaluak Jr. Saaryuaq) Airport,Sachs Harbour,Canada,YSY,71.9938964844,-125.24299621600001
140,Cape Dorset Airport,Cape Dorset,Canada,YTE,64.2300033569,-76.5267028809
141,Thompson Airport,Thompson,Canada,YTH,55.80110168457031,-97.86419677734376
142,CFB Trenton,Trenton,Canada,YTR,44.118900299072266,-77.5280990600586
143,Timmins/Victor M. Power,Timmins,Canada,YTS,48.569698333699996,-81.376701355
144,Billy Bishop Toronto City Centre Airport,Toronto,Canada,YTZ,43.627499,-79.396202
145,Tuktoyaktuk Airport,Tuktoyaktuk,Canada,YUB,69.43329620361328,-133.0260009765625
146,Montreal / Pierre Elliott Trudeau International Airport,Montreal,Canada,YUL,45.4706001282,-73.7407989502
147,Repulse Bay Airport,Repulse Bay,Canada,YUT,66.5214004517,-86.22470092770003
148,Hall Beach Airport,Hall Beach,Canada,YUX,68.77610015869999,-81.2425
149,Rouyn Noranda Airport,Rouyn,Canada,YUY,48.20610046386719,-78.83560180664062
150,La Ronge Airport,La Ronge,Canada,YVC,55.1514015198,-105.262001038
151,Vermilion Airport,Vermillion,Canada,YVG,53.355800628699996,-110.823997498
152,Qikiqtarjuaq Airport,Broughton Island,Canada,YVM,67.5457992554,-64.03140258789999
153,Val-d'Or Airport,Val D'or,Canada,YVO,48.0532989502,-77.7827987671
154,Kuujjuaq Airport,Quujjuaq,Canada,YVP,58.09609985351562,-68.42690277099611
155,Norman Wells Airport,Norman Wells,Canada,YVQ,65.28160095214844,-126.7979965209961
156,Vancouver International Airport,Vancouver,Canada,YVR,49.193901061999995,-123.183998108
157,Buffalo Narrows Airport,Buffalo Narrows,Canada,YVT,55.8418998718,-108.41799926799999
158,Wiarton Airport,Wiarton,Canada,YVV,44.7458,-81.107201
159,Petawawa Airport,Petawawa,Canada,YWA,45.95220184326172,-77.31919860839844
160,Winnipeg / James Armstrong Richardson International Airport,Winnipeg,Canada,YWG,49.909999847399995,-97.2398986816
161,Wabush Airport,Wabush,Canada,YWK,52.92190170288086,-66.86440277099611
162,Williams Lake Airport,Williams Lake,Canada,YWL,52.1831016541,-122.054000854
163,Wrigley Airport,Wrigley,Canada,YWY,63.20940017700195,-123.43699645996094
164,Cranbrook/Canadian Rockies International Airport,Cranbrook,Canada,YXC,49.610801696777,-115.78199768066001
165,Edmonton City Centre (Blatchford Field) Airport,Edmonton,Canada,YXD,53.5724983215,-113.52100372299999
166,Saskatoon John G. Diefenbaker International Airport,Saskatoon,Canada,YXE,52.170799255371094,-106.6999969482422
167,Medicine Hat Airport,Medicine Hat,Canada,YXH,50.01890182495117,-110.72100067138672
168,Fort St John Airport,Fort Saint John,Canada,YXJ,56.23809814453125,-120.73999786376952
169,Sioux Lookout Airport,Sioux Lookout,Canada,YXL,50.11389923095703,-91.9052963256836
170,Pangnirtung Airport,Pangnirtung,Canada,YXP,66.1449966431,-65.71360015869999
171,Earlton (Timiskaming Regional) Airport,Earlton,Canada,YXR,47.6974006546,-79.84734535220001
172,Prince George Airport,Prince George,Canada,YXS,53.8894004822,-122.679000854
173,Northwest Regional Airport Terrace-Kitimat,Terrace,Canada,YXT,54.468498,-128.576009
174,London Airport,London,Canada,YXU,43.035599,-81.1539
175,Abbotsford Airport,Abbotsford,Canada,YXX,49.02529907226562,-122.36100006103516
176,Whitehorse / Erik Nielsen International Airport,Whitehorse,Canada,YXY,60.709598541300004,-135.067001343
177,North Bay Jack Garland Airport,North Bay,Canada,YYB,46.363602,-79.422798
178,Calgary International Airport,Calgary,Canada,YYC,51.113899231000005,-114.019996643
179,Smithers Airport,Smithers,Canada,YYD,54.82469940185547,-127.18299865722656
180,Fort Nelson Airport,Fort Nelson,Canada,YYE,58.8363990784,-122.59700012200001
181,Penticton Airport,Penticton,Canada,YYF,49.46310043334961,-119.60199737548828
182,Charlottetown Airport,Charlottetown,Canada,YYG,46.290000915527344,-63.12110137939453
183,Taloyoak Airport,Spence Bay,Canada,YYH,69.5466995239,-93.57669830319999
184,Victoria International Airport,Victoria,Canada,YYJ,48.646900177,-123.426002502
185,Lynn Lake Airport,Lynn Lake,Canada,YYL,56.86389923095703,-101.07599639892578
186,Swift Current Airport,Swift Current,Canada,YYN,50.291900634799994,-107.691001892
187,Churchill Airport,Churchill,Canada,YYQ,58.73920059204102,-94.06500244140624
188,Goose Bay Airport,Goose Bay,Canada,YYR,53.3191986084,-60.425800323500006
189,St. John's International Airport,St. John's,Canada,YYT,47.618598938000005,-52.751899719200004
190,Kapuskasing Airport,Kapuskasing,Canada,YYU,49.41389846801758,-82.46749877929688
191,Armstrong Airport,Armstrong,Canada,YYW,50.29029846191406,-88.90969848632812
192,Mont Joli Airport,Mont Joli,Canada,YYY,48.60860061645508,-68.20809936523439
193,Lester B. Pearson International Airport,Toronto,Canada,YYZ,43.6772003174,-79.63059997559999
194,Downsview Airport,Toronto,Canada,YZD,43.74250030517578,-79.4655990600586
195,Gore Bay Manitoulin Airport,Gore Bay,Canada,YZE,45.88529968261719,-82.56780242919922
196,Yellowknife Airport,Yellowknife,Canada,YZF,62.46279907226562,-114.44000244140624
197,Slave Lake Airport,Slave Lake,Canada,YZH,55.293098449700004,-114.777000427
198,Sandspit Airport,Sandspit,Canada,YZP,53.25429916379999,-131.813995361
199,Chris Hadfield Airport,Sarnia,Canada,YZR,42.9994010925293,-82.30889892578125
200,Port Hardy Airport,Port Hardy,Canada,YZT,50.68059921264648,-127.36699676513672
201,Whitecourt Airport,Whitecourt,Canada,YZU,54.14390182495117,-115.78700256347656
202,Sept-Îles Airport,Sept-iles,Canada,YZV,50.22330093383789,-66.26560211181639
203,Teslin Airport,Teslin,Canada,YZW,60.17279815673828,-132.74299621582028
204,CFB Greenwood,Greenwood,Canada,YZX,44.98440170288086,-64.91690063476561
205,Faro Airport,Faro,Canada,ZFA,62.20750045776367,-133.37600708007812
206,Fort Mcpherson Airport,Fort Mcpherson,Canada,ZFM,67.40750122070311,-134.86099243164062
207,Blida Airport,Blida,Algeria,QLD,36.50360107421875,2.814169883728028
208,Bou Saada Airport,Bou Saada,Algeria,BUJ,35.33250045776367,4.206389904022217
209,Soummam Airport,Bejaja,Algeria,BJA,36.712001800500005,5.0699200630200005
210,Houari Boumediene Airport,Algier,Algeria,ALG,36.691001892089844,3.215409994125366
211,Djanet Inedbirene Airport,Djanet,Algeria,DJG,24.292801,9.45244
212,Boufarik Airport,Boufarik,Algeria,\N,36.545799,2.8761099999999997
213,Reggane Airport,Reggan,Algeria,\N,26.7101,0.285647
214,Illizi Takhamalt Airport,Illizi,Algeria,VVZ,26.7234992981,8.62265014648
215,Ain Oussera Airport,Ain Oussera,Algeria,\N,35.52539825439453,2.8787100315093994
216,Aguenar – Hadj Bey Akhamok Airport,Tamanrasset,Algeria,TMR,22.8115005493,5.45107984543
217,Jijel Ferhat Abbas Airport,Jijel,Algeria,GJL,36.7951011658,5.873610019680001
218,Mecheria Airport,Mecheria,Algeria,MZW,33.535900116,-0.242353007197
219,Relizane Airport,Relizane,Algeria,\N,35.752201,0.626272
220,Rabah Bitat Airport,Annaba,Algeria,AAE,36.822201,7.8091740000000005
221,Mohamed Boudiaf International Airport,Constantine,Algeria,CZL,36.2760009765625,6.620389938354492
222,Cheikh Larbi Tébessi Airport,Tebessa,Algeria,TEE,35.4315986633,8.120719909670001
224,Hassi R'Mel Airport,Tilrempt,Algeria,HRM,32.93040084838867,3.311539888381958
225,Bou Chekif Airport,Tiaret,Algeria,TID,35.3410987854,1.4631500244100002
226,Bou Sfer Airport,Bou Sfer,Algeria,\N,35.73540115356445,-0.8053889870643616
227,Tindouf Airport,Tindouf,Algeria,TIN,27.700399398800002,-8.167099952700001
228,Ech Cheliff Airport,Ech-cheliff,Algeria,CFK,36.212699890100005,1.33176994324
229,Tafaraoui Airport,Oran,Algeria,TAF,35.54240036010742,-0.5322780013084412
230,Zenata – Messali El Hadj Airport,Tlemcen,Algeria,TLM,35.0167007446,-1.4500000476800001
231,Es Senia Airport,Oran,Algeria,ORN,35.6239013672,-0.6211829781529999
232,Sidi Bel Abbes Airport,Sidi Bel Abbes,Algeria,BFW,35.1717987061,-0.593275010586
233,Ghriss Airport,Ghriss,Algeria,MUW,35.207698822021484,0.14714199304580688
234,Touat Cheikh Sidi Mohamed Belkebir Airport,Adrar,Algeria,AZR,27.83760070800781,-0.1864140033721924
235,Biskra Airport,Biskra,Algeria,BSK,34.793300628699996,5.73823022842
236,El Golea Airport,El Golea,Algeria,ELG,30.5713005065918,2.8595900535583496
237,Noumérat - Moufdi Zakaria Airport,Ghardaia,Algeria,GHA,32.38410186767578,3.7941100597381587
238,Oued Irara Airport,Hassi Messaoud,Algeria,HME,31.673000335700003,6.140439987180001
239,In Salah Airport,In Salah,Algeria,INZ,27.2509994507,2.51202011108
240,Touggourt Sidi Madhi Airport,Touggourt,Algeria,TGR,33.067798614501946,6.088669776916504
241,Laghouat Airport,Laghouat,Algeria,LOO,33.764400482199996,2.92833995819
242,Timimoun Airport,Timimoun,Algeria,TMX,29.237100601199998,0.276033014059
243,Ain el Beida Airport,Ouargla,Algeria,OGX,31.917200088500977,5.412779808044434
244,In Aménas Airport,Zarzaitine,Algeria,IAM,28.0515,9.64291
245,Cadjehoun Airport,Cotonou,Benin,COO,6.357230186462402,2.384350061416626
246,Ouagadougou Airport,Ouagadougou,Burkina Faso,OUA,12.3532,-1.51242
247,Bobo Dioulasso Airport,Bobo-dioulasso,Burkina Faso,BOY,11.160099983215332,-4.33096981048584
248,Kotoka International Airport,Accra,Ghana,ACC,5.605189800262451,-0.16678600013256073
249,Tamale Airport,Tamale,Ghana,TML,9.55718994140625,-0.8632140159606934
250,Wa Airport,Wa,Ghana,\N,10.0826997756958,-2.507689952850342
251,Sunyani Airport,Sunyani,Ghana,NYI,7.361830234527588,-2.3287599086761475
252,Takoradi Airport,Takoradi,Ghana,TKD,4.896059989929199,-1.7747600078582764
253,Port Bouet Airport,Abidjan,Cote d'Ivoire,ABJ,5.261390209197998,-3.9262900352478023
254,Bouaké Airport,Bouake,Cote d'Ivoire,BYK,7.738800048828125,-5.073669910430908
255,Daloa Airport,Daloa,Cote d'Ivoire,DJO,6.7928099632263175,-6.473189830780028
256,Korhogo Airport,Korhogo,Cote d'Ivoire,HGO,9.38718032837,-5.556660175319999
257,Man Airport,Man,Cote d'Ivoire,MJC,7.2720699310302725,-7.58735990524292
258,San Pedro Airport,San Pedro,Cote d'Ivoire,SPY,4.746719837188722,-6.660820007324219
259,Yamoussoukro Airport,Yamoussoukro,Cote d'Ivoire,ASK,6.9031701088,-5.36558008194
260,Nnamdi Azikiwe International Airport,Abuja,Nigeria,ABV,9.006790161132812,7.263169765472412
261,Akure Airport,Akure,Nigeria,AKR,7.246739864349365,5.3010101318359375
262,Benin Airport,Benin,Nigeria,BNI,6.3169798851013175,5.599500179290772
263,Margaret Ekpo International Airport,Calabar,Nigeria,CBQ,4.976019859313965,8.347200393676758
264,Akanu Ibiam International Airport,Enugu,Nigeria,ENU,6.4742698669433585,7.561960220336914
265,Gusau Airport,Gusau,Nigeria,\N,12.1717,6.696110000000001
266,Ibadan Airport,Ibadan,Nigeria,IBA,7.362460136413574,3.97832989692688
267,Ilorin International Airport,Ilorin,Nigeria,ILR,8.440210342407228,4.493919849395752
268,Yakubu Gowon Airport,Jos,Nigeria,JOS,9.639829635620117,8.869050025939941
269,Kaduna Airport,Kaduna,Nigeria,KAD,10.696000099182127,7.320109844207764
270,Mallam Aminu International Airport,Kano,Nigeria,KAN,12.0476,8.52462
271,Maiduguri International Airport,Maiduguri,Nigeria,MIU,11.855299949645994,13.080900192260742
272,Makurdi Airport,Makurdi,Nigeria,MDI,7.703880000000001,8.61394
273,Murtala Muhammed International Airport,Lagos,Nigeria,LOS,6.5773701667785645,3.321160078048706
274,Minna Airport,Minna,Nigeria,MXJ,9.652170181274414,6.462259769439697
275,Port Harcourt International Airport,Port Hartcourt,Nigeria,PHC,5.0154900550842285,6.94959020614624
276,Sadiq Abubakar III International Airport,Sokoto,Nigeria,SKO,12.916299819946287,5.207190036773682
277,Yola Airport,Yola,Nigeria,YOL,9.257550239562988,12.430399894714355
278,Zaria Airport,Zaria,Nigeria,ZAR,11.1302,7.685810000000001
279,Maradi Airport,Maradi,Niger,MFQ,13.5024995803833,7.1267499923706055
280,Diori Hamani International Airport,Niamey,Niger,NIM,13.4815,2.18361
281,Tahoua Airport,Tahoua,Niger,THZ,14.875699996948242,5.265359878540039
282,Mano Dayak International Airport,Agadez,Niger,AJY,16.965999603271484,8.000109672546388
283,Dirkou Airport,Dirkou,Niger,\N,18.968700408935547,12.86870002746582
284,Diffa Airport,Diffa,Niger,\N,13.372900009155273,12.626700401306152
285,Zinder Airport,Zinder,Niger,ZND,13.779000282287598,8.983759880065918
286,Monastir Habib Bourguiba International Airport,Monastir,Tunisia,MIR,35.75809860229492,10.75469970703125
287,Tunis Carthage International Airport,Tunis,Tunisia,TUN,36.85100173950195,10.22719955444336
288,Sidi Ahmed Air Base,Bizerte,Tunisia,\N,37.245398,9.79145
289,Remada Air Base,Remada,Tunisia,\N,32.306198120117195,10.382100105285645
290,Gafsa Ksar International Airport,Gafsa,Tunisia,GAF,34.42200088500977,8.822500228881836
291,Gabès Matmata International Airport,Gabes,Tunisia,GAE,33.87689971923828,10.103300094604492
292,Borj El Amri Airport,Bordj El Amri,Tunisia,\N,36.72129821777344,9.94314956665039
293,Djerba Zarzis International Airport,Djerba,Tunisia,DJE,33.875,10.775500297546387
294,El Borma Airport,El Borma,Tunisia,EBM,31.70429992675781,9.254619598388672
295,Sfax Thyna International Airport,Sfax,Tunisia,SFA,34.71799850463867,10.690999984741213
296,Tozeur Nefta International Airport,Tozeur,Tunisia,TOE,33.939701080322266,8.110560417175293
297,Niamtougou International Airport,Niatougou,Togo,LRL,9.767330169677734,1.0912499427795408
298,Lomé-Tokoin Airport,Lome,Togo,LFW,6.165609836578369,1.2545100450515747
299,Antwerp International Airport (Deurne),Antwerp,Belgium,ANR,51.189399719200004,4.46027994156
300,Beauvechain Air Base,Beauvechain,Belgium,\N,50.75859832763672,4.768330097198486
301,Kleine Brogel Air Base,Kleine Brogel,Belgium,\N,51.168301,5.47
302,Brussels Airport,Brussels,Belgium,BRU,50.9014015198,4.48443984985
303,Jehonville Air Base,Bertrix,Belgium,\N,49.8917007446289,5.223889827728272
304,Brussels South Charleroi Airport,Charleroi,Belgium,CRL,50.459202000000005,4.4538199999999994
305,Chièvres Air Base,Chievres,Belgium,\N,50.57580184936523,3.8310000896453857
306,Koksijde Air Base,Koksijde,Belgium,\N,51.09030151367188,2.652780055999756
307,Florennes Air Base,Florennes,Belgium,\N,50.2433013916,4.64583015442
308,Wevelgem Airport,Kortrijk-vevelgem,Belgium,KJK,50.817199707,3.2047200202900004
309,Liège Airport,Liege,Belgium,LGG,50.63740158081055,5.443220138549805
310,Ostend-Bruges International Airport,Ostend,Belgium,OST,51.1988983154,2.8622200489
311,Zutendaal Air Base,Zutendaal,Belgium,\N,50.9474983215332,5.590559959411621
312,Brustem Airfield Sint Truiden,Sint-truiden,Belgium,\N,50.791901,5.20167
313,Saint Hubert Air Base,St.-hubert,Belgium,\N,50.034400939941406,5.440810203552246
314,Ursel Air Base,Ursel,Belgium,\N,51.14419937133789,3.475559949874878
315,Weelde Air Base,Weelde,Belgium,\N,51.394798278808594,4.9601898193359375
316,Zoersel (Oostmalle) Airfield,Zoersel,Belgium,OBL,51.264702,4.75333
317,Flugplatz Bautzen,Bautzen,Germany,\N,51.193611,14.519722
318,Altenburg-Nobitz Airport,Altenburg,Germany,AOC,50.981945,12.506389
319,Dessau Airfield,Dessau,Germany,\N,51.831694,12.190961999999999
320,Eisenhüttenstadt Airfield,Eisenhuettenstadt,Germany,\N,52.195856,14.58753
322,Großenhain Airport,Suhl,Germany,\N,51.30805587768555,13.555556297302244
323,Merseburg Airport,Muehlhausen,Germany,\N,51.3630556,11.940833300000001
324,Halle-Oppin Airport,Halle,Germany,\N,51.552223,12.053889
325,Riesa-Göhlis Airport,Riesa,Germany,IES,51.293609619099996,13.3561105728
326,Rechlin-Lärz Airport,Rechlin-laerz,Germany,REB,53.306388855,12.7522220612
327,Strausberg Airport,Strausberg,Germany,\N,52.5805549621582,13.916666984558105
328,Schönhagen Airport,Schoenhagen,Germany,QXH,52.203609,13.156389
329,Barth Airport,Barth,Germany,BBH,54.338253,12.710515
330,Jena-Schöngleina Airfield,Jena,Germany,\N,50.915279,11.714444
331,Kyritz Airport,Kyritz,Germany,\N,52.91888809204102,12.425277709960938
332,"Magdeburg ""City"" Airport",Magdeburg,Germany,ZMG,52.073612,11.626389
333,Rothenburg/Görlitz Airport,Rothenburg/ol,Germany,\N,51.36333465576172,14.949999809265135
334,Anklam Airfield,Anklam,Germany,\N,53.832779,13.668610999999999
335,Cottbus-Drewitz Airport,Cottbus,Germany,CBU,51.889441999999995,14.531944000000001
336,Kamenz Airport,Kamenz,Germany,\N,51.29694366455078,14.1274995803833
337,Berlin-Schönefeld Airport,Berlin,Germany,SXF,52.380001,13.5225
338,Dresden Airport,Dresden,Germany,DRS,51.1328010559082,13.767200469970705
339,Erfurt Airport,Erfurt,Germany,ERF,50.97980117797852,10.958100318908693
340,Frankfurt am Main Airport,Frankfurt,Germany,FRA,50.033333,8.570556
341,Münster Osnabrück Airport,Munster,Germany,FMO,52.134601593,7.68483018875
342,Hamburg Airport,Hamburg,Germany,HAM,53.630401611328004,9.988229751586902
343,Berlin-Tempelhof International Airport,Berlin,Germany,THF,52.472999572753906,13.403900146484375
344,Cologne Bonn Airport,Cologne,Germany,CGN,50.865898132299996,7.1427397728
345,Düsseldorf Airport,Duesseldorf,Germany,DUS,51.289501,6.766780000000001
346,Munich Airport,Munich,Germany,MUC,48.353802,11.7861
347,Nuremberg Airport,Nuernberg,Germany,NUE,49.498699,11.078056
348,Leipzig/Halle Airport,Leipzig,Germany,LEJ,51.423889,12.236388999999999
349,Saarbrücken Airport,Saarbruecken,Germany,SCN,49.2145996094,7.10950994492
350,Stuttgart Airport,Stuttgart,Germany,STR,48.6898994446,9.22196006775
351,Berlin-Tegel Airport,Berlin,Germany,TXL,52.5597,13.2877
352,Hannover Airport,Hannover,Germany,HAJ,52.461101532,9.68507957458
353,Bremen Airport,Bremen,Germany,BRE,53.0475006104,8.78666973114
354,Frankfurt-Egelsbach Airport,Egelsbach,Germany,QEF,49.959998999999996,8.645833
355,Frankfurt-Hahn Airport,Hahn,Germany,HHN,49.9487,7.263889999999999
356,Mannheim-City Airport,Mannheim,Germany,MHG,49.473057,8.514167
357,Allendorf/Eder Airport,Allendorf,Germany,\N,51.03499984741211,8.680832862854004
358,Worms Airport,Worms,Germany,\N,49.606945,8.368333
359,Mainz-Finthen Airport,Mainz,Germany,\N,49.967499,8.147222
360,Eisenach-Kindel Airport,Eisenach,Germany,EIB,50.991603999999995,10.47973
361,Siegerland Airport,Siegerland,Germany,SGE,50.70769882202149,8.082969665527344
362,Hamburg-Finkenwerder Airport,Hamburg,Germany,XFW,53.5352783203125,9.835556030273438
363,Kiel-Holtenau Airport,Kiel,Germany,KEL,54.37944412231445,10.145277976989746
364,Lübeck Blankensee Airport,Luebeck,Germany,LBC,53.805400848400005,10.7192001343
365,Flugplatz Dahlemer Binz,Dahlemer Binz,Germany,\N,50.405555725,6.528889179199999
366,Meinerzhagen Airport,Meinerzhagen,Germany,\N,51.099998474121094,7.5999999046325675
367,Arnsberg-Menden Airport,Arnsberg,Germany,\N,51.48389053344727,7.8983330726623535
368,Essen Mulheim Airport,Essen,Germany,ESS,51.40230178833008,6.9373297691345215
369,Bielefeld Airport,Bielefeld,Germany,BFE,51.964721999999995,8.544444
370,Mönchengladbach Airport,Moenchengladbach,Germany,MGL,51.230278000000006,6.504444
371,Paderborn Lippstadt Airport,Paderborn,Germany,PAD,51.614101409899995,8.616319656369999
372,Stadtlohn-Vreden Airport,Stadtlohn,Germany,\N,51.99583435058594,6.840556144714356
373,Dortmund Airport,Dortmund,Germany,DTM,51.518299102799986,7.61223983765
374,Augsburg Airport,Augsburg,Germany,AGB,48.425278000000006,10.931667
375,Biberach a.d. Riß Airfield,Biberach,Germany,\N,48.111111,9.762777999999999
376,Eggenfelden Airport,Eggenfelden,Germany,\N,48.39611053466797,12.723610877990724
377,Mindelheim-Mattsies Airfield,Mindelheim,Germany,\N,48.106945,10.525
378,Oberpfaffenhofen Airport,Oberpfaffenhofen,Germany,OBF,48.081402000000004,11.2831
379,Straubing Airport,Straubing,Germany,RBM,48.90083312988281,12.516667366027832
380,Vilshofen Airport,Vilshofen,Germany,\N,48.6349983215332,13.195555686950685
381,Leutkirch-Unterzeil Airport,Leutkirch,Germany,\N,47.85889053344727,10.014166831970217
382,Friedrichshafen Airport,Friedrichshafen,Germany,FDH,47.671298980699994,9.511489868160002
383,Schwerin Parchim Airport,Parchim,Germany,SZW,53.426998,11.7834
384,Stendal-Borstel Airport,Stendal,Germany,\N,52.62888717651367,11.818611145019533
385,Aalen-Heidenheim/Elchingen Airport,Aalen-heidenheim,Germany,\N,48.77777862548828,10.264721870422363
386,Bayreuth Airport,Bayreuth,Germany,BYU,49.985001000000004,11.64
387,Burg Feuerstein Airport,Burg Feuerstein,Germany,URD,49.794166564940994,11.133610725402999
388,Hof-Plauen Airport,Hof,Germany,HOQ,50.288612365722656,11.856389045715332
389,Haßfurt-Schweinfurt Airport,Hassfurt,Germany,\N,50.0180549621582,10.529443740844727
390,Koblenz-Winningen Airfield,Koblenz,Germany,\N,50.325558,7.528611
391,Trier-Föhren Airport,Trier,Germany,\N,49.863888,6.7875
392,Speyer Airfield,Speyer,Germany,\N,49.304722,8.451389
393,Zweibrücken Airport,Zweibruecken,Germany,ZQW,49.2094,7.4005600000000005
394,Donaueschingen-Villingen Airport,Donaueschingen,Germany,ZQL,47.97333145139999,8.52222156525
395,Freiburg i. Br. Airport,Freiburg,Germany,\N,48.022777557400005,7.832499980930001
396,Mengen-Hohentengen Airport,Mengen,Germany,\N,48.05389022827149,9.372777938842773
397,Adolf Würth Airport,Schwaebisch Hall,Germany,\N,49.1183319092,9.783888816829998
398,Finsterwalde/Schacksdorf Airport,Soest,Germany,\N,51.607498,13.743610999999998
399,Braunschweig-Wolfsburg Airport,Braunschweig,Germany,BWE,52.319199,10.5561
400,Kassel-Calden Airport,Kassel,Germany,KSF,51.417273,9.384967
401,Hildesheim Airport,Hildesheim,Germany,\N,52.18138885498047,9.946389198303224
402,Bremerhaven Airport,Bremerhaven,Germany,BRV,53.50694300000001,8.572778
403,Emden Airport,Emden,Germany,EME,53.391109,7.2275
404,Leer-Papenburg Airport,Leer,Germany,\N,53.27194213867188,7.441667079925537
405,Wilhelmshaven-Mariensiel Airport,Wilhelmshaven,Germany,WVN,53.502220153808594,8.05222225189209
406,Borkum Airport,Borkum,Germany,BMK,53.59639,6.709167
407,Norderney Airport,Norderney,Germany,NRD,53.70694351196289,7.230000019073486
408,Flensburg-Schäferhaus Airport,Flensburg,Germany,FLF,54.77333450317383,9.378889083862305
409,Rendsburg-Schachtholm Airport,Rendsburg,Germany,\N,54.22000122070313,9.599444389343262
410,Westerland Sylt Airport,Westerland,Germany,GWT,54.9132003784,8.34047031403
411,Ämari Air Base,Armari Air Force Base,Estonia,\N,59.26029968261719,24.208499908447266
412,Kärdla Airport,Kardla,Estonia,KDL,58.99079895019531,22.830699920654297
413,Kuressaare Airport,Kuressaare,Estonia,URE,58.22990036010742,22.50950050354004
414,Pärnu Airport,Parnu,Estonia,EPU,58.41899871826172,24.47279930114746
415,Lennart Meri Tallinn Airport,Tallinn-ulemiste International,Estonia,TLL,59.41329956049999,24.8327999115
416,Tartu Airport,Tartu,Estonia,TAY,58.30749893189999,26.6903991699
417,Enontekio Airport,Enontekio,Finland,ENF,68.36260223388699,23.424299240112
418,Eura Airport,Eura,Finland,\N,61.1161003112793,22.201400756835934
419,Halli Airport,Halli,Finland,KEV,61.856039,24.786686
420,Helsinki Malmi Airport,Helsinki,Finland,HEM,60.254600524902344,25.04280090332031
421,Helsinki Vantaa Airport,Helsinki,Finland,HEL,60.317199707031,24.963300704956
422,Hameenkyro Airport,Hameenkyro,Finland,\N,61.68970108032226,23.073699951171875
423,Hanko Airport,Hanko,Finland,\N,59.848899841308594,23.083599090576172
424,Hyvinkää Airfield,Hyvinkaa,Finland,HYV,60.6543998718,24.881099700900002
425,Kiikala Airport,Kikala,Finland,\N,60.4625015259,23.652500152600002
426,Immola Airport,Immola,Finland,\N,61.24919891357422,28.90369987487793
427,Kitee Airport,Kitee,Finland,KTQ,62.1661,30.073601
428,Ivalo Airport,Ivalo,Finland,IVL,68.607299804688,27.405300140380998
429,Joensuu Airport,Joensuu,Finland,JOE,62.662899017334006,29.607500076294
430,Jyvaskyla Airport,Jyvaskyla,Finland,JYV,62.399501800537,25.678300857544
431,Kauhava Airport,Kauhava,Finland,KAU,63.127102,23.051399
432,Kemi-Tornio Airport,Kemi,Finland,KEM,65.778701782227,24.582099914551
433,Kajaani Airport,Kajaani,Finland,KAJ,64.285499572754,27.692399978638
434,Kauhajoki Airport,Kauhajoki,Finland,KHJ,62.4625015259,22.3931007385
435,Kokkola-Pietarsaari Airport,Kruunupyy,Finland,KOK,63.721199035645,23.143100738525
436,Kemijarvi Airport,Kemijarvi,Finland,\N,66.712898,27.156799
437,Kuusamo Airport,Kuusamo,Finland,KAO,65.98760223388699,29.239400863647
438,Kittilä Airport,Kittila,Finland,KTT,67.700996398926,24.846799850464002
439,Kuopio Airport,Kuopio,Finland,KUO,63.007099151611,27.797800064087
440,Lahti Vesivehmaa Airport,Vesivehmaa,Finland,QLF,61.144199,25.693501
441,Lappeenranta Airport,Lappeenranta,Finland,LPP,61.044601,28.144743
442,Mariehamn Airport,Mariehamn,Finland,MHQ,60.122200012207,19.898199081421
443,Menkijarvi Airport,Menkijarvi,Finland,\N,62.94670104980469,23.51889991760254
444,Mikkeli Airport,Mikkeli,Finland,MIK,61.6866,27.201798999999998
445,Nummela Airport,Nummela,Finland,\N,60.3339004517,24.2964000702
446,Oulu Airport,Oulu,Finland,OUL,64.930099487305,25.354600906372
447,Piikajarvi Airport,Piikajarvi,Finland,\N,61.24560165405274,22.19339942932129
448,Pori Airport,Pori,Finland,POR,61.461700439453004,21.799999237061
449,Pudasjärvi Airport,Pudasjarvi,Finland,\N,65.4021987915,26.9468994141
450,Pyhäsalmi Airport,Pyhasalmi,Finland,\N,63.7318992615,25.9263000488
451,Raahe Pattijoki Airport,Pattijoki,Finland,\N,64.6881027222,24.6958007812
452,Rantasalmi Airport,Rantasalmi,Finland,\N,62.0654983521,28.3565006256
453,Rovaniemi Airport,Rovaniemi,Finland,RVN,66.564796447754,25.830400466919
454,Rayskala Airport,Rayskala,Finland,\N,60.74470138549805,24.107799530029297
455,Savonlinna Airport,Savonlinna,Finland,SVL,61.943099975586,28.945100784302
456,Selanpaa Airport,Selanpaa,Finland,\N,61.062400817871094,26.79890060424805
457,Sodankyla Airport,Sodankyla,Finland,SOT,67.3949966431,26.619100570700002
458,Tampere-Pirkkala Airport,Tampere,Finland,TMP,61.414100646973,23.604400634766
459,Teisko Airport,Teisko,Finland,\N,61.7733,24.026999999999997
460,Turku Airport,Turku,Finland,TKU,60.514099121094,22.262800216675
461,Utti Air Base,Utti,Finland,UTI,60.89640045165999,26.938400268555004
462,Vaasa Airport,Vaasa,Finland,VAA,63.050701141357,21.762199401855
463,Varkaus Airport,Varkaus,Finland,VRK,62.171100616455,27.868600845337
464,Ylivieska Airfield,Ylivieska-raudaskyla,Finland,YLI,64.0547222,24.7252778
465,Belfast International Airport,Belfast,United Kingdom,BFS,54.6575012207,-6.21582984924
466,St Angelo Airport,Enniskillen,United Kingdom,ENK,54.39889907836914,-7.651669979095459
467,George Best Belfast City Airport,Belfast,United Kingdom,BHD,54.61809921264648,-5.872499942779541
468,City of Derry Airport,Londonderry,United Kingdom,LDY,55.04280090332031,-7.161109924316406
469,Birmingham International Airport,Birmingham,United Kingdom,BHX,52.4538993835,-1.7480299472799998
470,Coventry Airport,Coventry,United Kingdom,CVT,52.3697013855,-1.47971999645
471,Leicester Airport,Leicester,United Kingdom,\N,52.6077995300293,-1.0319399833679201
472,Gloucestershire Airport,Golouchestershire,United Kingdom,GLO,51.89419937133789,-2.1672201156616206
474,Wolverhampton Halfpenny Green Airport,Halfpenny Green,United Kingdom,\N,52.51750183105469,-2.2594399452209477
475,Cotswold Airport,Pailton,United Kingdom,GBA,51.668095,-2.05694
476,Turweston Airport,Turweston,United Kingdom,\N,52.0407981873,-1.09555995464
477,Wellesbourne Mountford Airport,Wellesbourne,United Kingdom,\N,52.19219970703125,-1.6144399642944336
478,Manchester Airport,Manchester,United Kingdom,MAN,53.35369873046875,-2.2749500274658203
479,Manchester Woodford Airport,Woodfort,United Kingdom,\N,53.3381,-2.14889
480,Royal Marines Base Chivenor Airport,Chivenor,United Kingdom,\N,51.08720016479492,-4.150340080261231
481,Newquay Cornwall Airport,Newquai,United Kingdom,NQY,50.44060134887695,-4.995409965515137
482,RAF Lyneham,Lyneham,United Kingdom,LYE,51.5051,-1.99343
483,MoD Boscombe Down Airport,Boscombe Down,United Kingdom,\N,51.152198791503906,-1.7474100589752195
484,RNAS Culdrose,Culdrose,United Kingdom,\N,50.08610153198242,-5.2557101249694815
485,MoD St. Athan,St. Athan,United Kingdom,\N,51.4048,-3.43575
486,RNAS Yeovilton,Yeovilton,United Kingdom,YEO,51.0093994140625,-2.638819932937622
487,Haverfordwest Airport,Haverfordwest,United Kingdom,HAW,51.83309936523438,-4.9611101150512695
488,Cardiff International Airport,Cardiff,United Kingdom,CWL,51.39670181274414,-3.343329906463623
489,Swansea Airport,Swansea,United Kingdom,SWS,51.60530090332031,-4.0678300857543945
490,Bristol Airport,Bristol,United Kingdom,BRS,51.382702,-2.71909
491,Liverpool John Lennon Airport,Liverpool,United Kingdom,LPL,53.33359909057617,-2.849720001220703
492,London Luton Airport,London,United Kingdom,LTN,51.87469863891602,-0.36833301186561584
493,Plymouth City Airport,Plymouth,United Kingdom,PLH,50.422798,-4.10583
494,Bournemouth Airport,Bournemouth,United Kingdom,BOH,50.77999877929688,-1.8424999713897705
495,Southampton Airport,Southampton,United Kingdom,SOU,50.95029830932617,-1.3567999601364136
496,Lasham Airport,Lasham,United Kingdom,QLA,51.18719863891602,-1.0334999561309814
497,Alderney Airport,Alderney,Guernsey,ACI,49.706103999999996,-2.2147200000000002
498,Guernsey Airport,Guernsey,Guernsey,GCI,49.43500137329102,-2.601969957351685
499,Jersey Airport,Jersey,Jersey,JER,49.20790100097656,-2.1955099105834956
500,Shoreham Airport,Shoreham By Sea,United Kingdom,ESH,50.835602,-0.297222
501,London Biggin Hill Airport,Biggin Hill,United Kingdom,BQH,51.330799102799986,0.032499998807900006
502,London Gatwick Airport,London,United Kingdom,LGW,51.148102,-0.190278
503,London City Airport,London,United Kingdom,LCY,51.505299,0.055277999999999994
504,Farnborough Airport,Farnborough,United Kingdom,FAB,51.275798797600004,-0.776332974434
505,Chalgrove Airport,Chalsgrove,United Kingdom,\N,51.67610168457031,-1.0808299779891968
506,Blackbushe Airport,Blackbushe,United Kingdom,BBS,51.32389831542969,-0.8475000262260437
507,London Heathrow Airport,London,United Kingdom,LHR,51.4706,-0.461941
508,Southend Airport,Southend,United Kingdom,SEN,51.5713996887207,0.6955559849739075
509,Lydd Airport,Lydd,United Kingdom,LYX,50.95610046386719,0.939167022705078
510,Kent International Airport,Manston,United Kingdom,MSE,51.342201,1.3461100000000001
511,Brough Airport,Brough,United Kingdom,\N,53.7197,-0.566333
512,Carlisle Airport,Carlisle,United Kingdom,CAX,54.9375,-2.8091700077056885
513,Retford Gamston Airport,Repton,United Kingdom,\N,53.28060150146485,-0.9513890147209167
514,Blackpool International Airport,Blackpool,United Kingdom,BLK,53.77170181274414,-3.0286099910736084
515,Humberside Airport,Humberside,United Kingdom,HUY,53.57440185546875,-0.350832998752594
516,Barrow Walney Island Airport,Barrow Island,United Kingdom,BWF,54.1286111,-3.2675
517,Leeds Bradford Airport,Leeds,United Kingdom,LBA,53.86589813232422,-1.6605700254440308
518,Warton Airport,Warton,United Kingdom,WRT,53.745098,-2.88306
519,Hawarden Airport,Hawarden,United Kingdom,CEG,53.1781005859375,-2.977780103683472
520,Isle of Man Airport,Isle Of Man,Isle of Man,IOM,54.08330154418945,-4.623889923095703
521,Newcastle Airport,Newcastle,United Kingdom,NCL,55.037498474121094,-1.6916699409484863
522,Durham Tees Valley Airport,Teesside,United Kingdom,MME,54.50920104980469,-1.4294099807739258
523,East Midlands Airport,East Midlands,United Kingdom,EMA,52.8311004639,-1.32806003094
524,Llanbedr Airport,Llanbedr,United Kingdom,\N,52.811698913574,-4.1235799789428995
525,RAF Ternhill,Ternhill,United Kingdom,\N,52.87120056152344,-2.533560037612915
526,RAF Shawbury,Shawbury,United Kingdom,\N,52.79819869995117,-2.668040037155152
528,RAF Woodvale,Woodvale,United Kingdom,\N,53.5816,-3.05552
529,Kirkwall Airport,Kirkwall,United Kingdom,KOI,58.957801818847656,-2.9049999713897705
530,Sumburgh Airport,Sumburgh,United Kingdom,LSI,59.87889862060547,-1.295560002326965
531,Wick Airport,Wick,United Kingdom,WIC,58.458900451660156,-3.09306001663208
532,Aberdeen Dyce Airport,Aberdeen,United Kingdom,ABZ,57.20190048217773,-2.1977798938751216
533,Inverness Airport,Inverness,United Kingdom,INV,57.54249954223633,-4.047500133514403
534,Glasgow International Airport,Glasgow,United Kingdom,GLA,55.8718986511,-4.43306016922
535,Edinburgh Airport,Edinburgh,United Kingdom,EDI,55.95000076293945,-3.372499942779541
536,Islay Airport,Islay,United Kingdom,ILY,55.68190002441406,-6.256669998168945
537,Glasgow Prestwick Airport,Prestwick,United Kingdom,PIK,55.5093994140625,-4.586669921875
538,Benbecula Airport,Benbecula,United Kingdom,BEB,57.48109817504883,-7.362780094146728
539,Scatsta Airport,Scatsta,United Kingdom,SCS,60.43280029296875,-1.2961100339889526
540,Dundee Airport,Dundee,United Kingdom,DND,56.45249938964844,-3.0258300304412837
541,Stornoway Airport,Stornoway,United Kingdom,SYY,58.215599060058594,-6.3311100006103525
542,Tiree Airport,Tiree,United Kingdom,TRE,56.49919891357422,-6.869170188903809
543,RAF Leuchars,Leuchars,United Kingdom,ADX,56.37289810180664,-2.8684399127960205
544,RAF Lossiemouth,Lossiemouth,United Kingdom,LMO,57.7052001953125,-3.339169979095459
545,Cambridge Airport,Cambridge,United Kingdom,CBG,52.205002,0.175
546,Peterborough Business Airport,Peterborough,United Kingdom,\N,52.46810150146485,-0.2511110007762909
547,Norwich International Airport,Norwich,United Kingdom,NWI,52.675800323500006,1.28278005123
548,London Stansted Airport,London,United Kingdom,STN,51.8849983215,0.23499999940400002
549,North Weald Airport,North Weald,United Kingdom,\N,51.721698761000006,0.154166996479
550,Sheffield City Heliport,Fowlmere,United Kingdom,\N,53.394299,-1.38849
551,Cranfield Airport,Cranfield,United Kingdom,\N,52.0722007751,-0.616666972637
552,Exeter International Airport,Exeter,United Kingdom,EXT,50.73440170288086,-3.4138898849487305
553,Bristol Filton Airport,Bristol,United Kingdom,FZO,51.519401550299996,-2.5908300876599997
554,Oxford (Kidlington) Airport,Oxford,United Kingdom,OXF,51.8368988037,-1.32000005245
555,RAF Benson,Benson,United Kingdom,BEX,51.616401672399995,-1.09582996368
556,RAF Lakenheath,Lakenheath,United Kingdom,LKZ,52.409301757799994,0.5609999895100001
557,RAF Mildenhall,Mildenhall,United Kingdom,MHZ,52.361900329589844,0.4864059984683991
558,RAF Wattisham,Wattisham,United Kingdom,\N,52.1273002625,0.956264019012
559,RAF Wyton,Wyton,United Kingdom,QUY,52.357200622600004,-0.107832998037
560,RAF Fairford,Fairford,United Kingdom,FFD,51.6822013855,-1.7900300025900002
561,RAF Brize Norton,Brize Norton,United Kingdom,BZZ,51.75,-1.58362
562,RAF Odiham,Odiham,United Kingdom,ODH,51.2341003418,-0.9428250193600001
563,DCAE Cosford Air Base,Cosford,United Kingdom,\N,52.639998999999996,-2.30558
564,RAF Northolt,Northolt,United Kingdom,NHT,51.5530014038,-0.418166995049
565,RAF Coningsby,Coningsby,United Kingdom,QCY,53.0929985046,-0.166014000773
566,RAF Dishforth,Dishforth,United Kingdom,\N,54.1371994019,-1.42025005817
567,Leeming Airport,Leeming,United Kingdom,\N,54.2924,-1.5354
568,Leeds East Airport,Church Fenton,United Kingdom,\N,53.834301,-1.1955
569,RAF Honington,Honington,United Kingdom,BEQ,52.34260177612305,0.7729390263557434
570,RAF Cottesmore,Cottesmore,United Kingdom,\N,52.735699,-0.6487689999999999
571,RAF Scampton,Scampton,United Kingdom,SQZ,53.307800293,-0.550832986832
572,RAF Wittering,Wittering,United Kingdom,\N,52.612598,-0.47645299999999996
573,RAF Linton-On-Ouse,Linton-on-ouse,United Kingdom,HRT,54.0489006042,-1.2527500391
574,RAF Waddington,Waddington,United Kingdom,WTN,53.1661987305,-0.5238109827040001
575,RAF Topcliffe,Topcliffe,United Kingdom,\N,54.2055015564,-1.3820899725
576,RAF Cranwell,Cranwell,United Kingdom,\N,53.0303001404,-0.4832420051100001
577,RAF Barkston Heath,Barkston Heath,United Kingdom,\N,52.962200164799995,-0.561625003815
578,RAF Marham,Marham,United Kingdom,KNF,52.648394999999994,0.550692
579,Mount Pleasant Airport,Mount Pleasant,Falkland Islands,MPN,-51.82279968261719,-58.44720077514648
580,Amsterdam Airport Schiphol,Amsterdam,Netherlands,AMS,52.308601,4.76389
581,Budel Airfield Kempen,Weert,Netherlands,\N,51.255299,5.60139
582,Maastricht Aachen Airport,Maastricht,Netherlands,MST,50.911701,5.7701400000000005
583,Deelen Air Base,Deelen,Netherlands,\N,52.0606,5.87306
584,Drachten Airport,Drachten,Netherlands,\N,53.119201660200005,6.12972021103
585,Eindhoven Airport,Eindhoven,Netherlands,EIN,51.4500999451,5.374529838559999
586,Eelde Airport,Groningen,Netherlands,GRQ,53.1197013855,6.579440116880001
587,Gilze Rijen Air Base,Gilze-rijen,Netherlands,GLZ,51.56740188598633,4.931829929351807
588,De Kooy Airport,De Kooy,Netherlands,DHR,52.92340087890625,4.780620098114014
589,Lelystad Airport,Lelystad,Netherlands,LEY,52.4603,5.52722
590,Leeuwarden Air Base,Leeuwarden,Netherlands,LWR,53.228599548339844,5.760560035705566
591,Rotterdam The Hague Airport,Rotterdam,Netherlands,RTM,51.956902,4.43722
592,Soesterberg Air Base,Soesterberg,Netherlands,UTC,52.1273002625,5.27618980408
593,Twente Airport,Enschede,Netherlands,ENS,52.275833,6.889167
594,Valkenburg Naval Air Base,Valkenburg,Netherlands,LID,52.1660995483,4.41794013977
595,Woensdrecht Air Base,Woensdrecht,Netherlands,WOE,51.4491,4.34203
596,Cork Airport,Cork,Ireland,ORK,51.84130096435547,-8.491109848022461
597,Galway Airport,Galway,Ireland,GWY,53.30020141601562,-8.941590309143066
599,Dublin Airport,Dublin,Ireland,DUB,53.421299,-6.27007
600,Ireland West Knock Airport,Connaught,Ireland,NOC,53.9103012084961,-8.818490028381348
601,Kerry Airport,Kerry,Ireland,KIR,52.18090057373047,-9.52377986907959
602,Casement Air Base,Casement,Ireland,\N,53.301700591999996,-6.451330184940001
603,Shannon Airport,Shannon,Ireland,SNN,52.702,-8.92482
604,Sligo Airport,Sligo,Ireland,SXL,54.280200958252,-8.599209785461401
605,Waterford Airport,Waterford,Ireland,WAT,52.18719863891602,-7.086959838867188
607,Aarhus Airport,Aarhus,Denmark,AAR,56.2999992371,10.619000434899998
608,Billund Airport,Billund,Denmark,BLL,55.7402992249,9.15178012848
609,Copenhagen Kastrup Airport,Copenhagen,Denmark,CPH,55.617900848389,12.656000137328999
610,Esbjerg Airport,Esbjerg,Denmark,EBJ,55.525902,8.5534
611,Grønholt Hillerød Airport,Gronholt,Denmark,\N,55.94139862060547,12.382200241088867
612,Karup Airport,Karup,Denmark,KRP,56.29750061035156,9.124629974365234
613,Læsø Airport,Laeso,Denmark,BYR,57.277198791503906,11.000100135803224
614,Lolland Falster Maribo Airport,Maribo,Denmark,MRW,54.699298999999996,11.4401
615,Odense Airport,Odense,Denmark,ODE,55.47669982910156,10.330900192260742
616,Kruså-Padborg Airport,Krusa-padborg,Denmark,\N,54.87030029296875,9.279009819030762
617,Copenhagen Roskilde Airport,Copenhagen,Denmark,RKE,55.58560180664063,12.131400108337402
618,Bornholm Airport,Ronne,Denmark,RNN,55.06330108642578,14.759599685668945
619,Sønderborg Airport,Soenderborg,Denmark,SGD,54.96440124511719,9.791729927062988
621,Skrydstrup Air Base,Skrydstrup,Denmark,SKS,55.221047999999996,9.26702
622,Skive Airport,Skive,Denmark,SQW,56.55020141601562,9.172980308532717
623,Thisted Airport,Thisted,Denmark,TED,57.06880187988281,8.705220222473145
624,Kolding Vamdrup Airfield,Kolding,Denmark,\N,55.436298,9.330919999999999
625,Vagar Airport,Vagar,Faroe Islands,FAE,62.0635986328125,-7.277219772338867
626,Vesthimmerlands Flyveplads,Vesthimmerland,Denmark,\N,56.846901,9.45861
627,Stauning Airport,Stauning,Denmark,STA,55.9901008605957,8.353910446166992
628,Aalborg Airport,Aalborg,Denmark,AAL,57.092758913800004,9.84924316406
629,Luxembourg-Findel International Airport,Luxemburg,Luxembourg,LUX,49.6233333,6.204444400000001
630,Ålesund Airport,Alesund,Norway,AES,62.5625,6.119699954986572
631,Andøya Airport,Andoya,Norway,ANX,69.292503356934,16.144199371338
632,Alta Airport,Alta,Norway,ALF,69.976097106934,23.371700286865
633,Bømoen Airport,Voss,Norway,\N,60.63890075683594,6.501500129699707
634,Brønnøysund Airport,Bronnoysund,Norway,BNN,65.461097717285,12.217499732971001
635,Bodø Airport,Bodo,Norway,BOO,67.26920318603516,14.365300178527832
636,Bergen Airport Flesland,Bergen,Norway,BGO,60.29339981,5.218140125
637,Båtsfjord Airport,Batsfjord,Norway,BJF,70.60050201416,29.691400527954002
638,Kristiansand Airport,Kristiansand,Norway,KRS,58.204201,8.08537
639,Geilo Airport Dagali,Geilo,Norway,DLD,60.41730117797852,8.518349647521973
640,Bardufoss Airport,Bardufoss,Norway,BDU,69.055801391602,18.540399551392
641,"Harstad/Narvik Airport, Evenes",Harstad/Narvik,Norway,EVE,68.491302490234,16.678100585938
642,Leirin Airport,Fagernes,Norway,VDB,61.015598297119,9.2880601882935
643,Florø Airport,Floro,Norway,FRO,61.583599090576,5.0247201919556
644,Oslo Lufthavn,Oslo,Norway,OSL,60.121,11.0502
645,Haugesund Airport,Haugesund,Norway,HAU,59.34529876709001,5.208360195159901
646,Hasvik Airport,Hasvik,Norway,HAA,70.486701965332,22.139699935913
647,Kristiansund Airport (Kvernberget),Kristiansund,Norway,KSU,63.111801147461,7.8245201110839995
648,Kjeller Airport,Kjeller,Norway,\N,59.969299316400004,11.0361003876
649,Kirkenes Airport (Høybuktmoen),Kirkenes,Norway,KKN,69.725799560547,29.891300201416
650,Lista Airport,Farsund,Norway,FAN,58.0994987487793,6.626049995422362
651,Molde Airport,Molde,Norway,MOL,62.744701385498,7.262499809265099
652,Mosjøen Airport (Kjærstad),Mosjoen,Norway,MJF,65.78399658203101,13.214900016785
653,Banak Airport,Lakselv,Norway,LKL,70.068801879883,24.973499298095998
654,Notodden Airport,Notodden,Norway,NTB,59.565701000000004,9.21222
655,Ørland Airport,Orland,Norway,OLA,63.69889831542969,9.604000091552734
656,Røros Airport,Roros,Norway,RRS,62.578399658203004,11.342300415039
657,"Moss Airport, Rygge",Rygge,Norway,RYG,59.378817000000005,10.785439
658,"Svalbard Airport, Longyear",Svalbard,Norway,LYR,78.246101379395,15.465600013733
659,Skien Airport,Skien,Norway,SKE,59.18500137329102,9.566940307617188
660,Stord Airport,Stord,Norway,SRP,59.79190063476562,5.340849876403809
662,Sandnessjøen Airport (Stokka),Sandnessjoen,Norway,SSJ,65.95680236816399,12.468899726868
663,"Tromsø Airport,",Tromso,Norway,TOS,69.68329620361328,18.91889953613281
664,"Sandefjord Airport, Torp",Sandefjord,Norway,TRF,59.1866989136,10.258600235
665,Trondheim Airport Værnes,Trondheim,Norway,TRD,63.45780179999999,10.9239998
666,Stavanger Airport Sola,Stavanger,Norway,SVG,58.876701354,5.637780189500001
667,Babice Airport,Warsaw,Poland,\N,52.26850128173828,20.910999298095703
668,Gdańsk Lech Wałęsa Airport,Gdansk,Poland,GDN,54.377601623535156,18.46619987487793
669,Kraków John Paul II International Airport,Krakow,Poland,KRK,50.077702,19.7848
670,Muchowiec Airport,Katowice,Poland,\N,50.23809814453125,19.03420066833496
671,Katowice International Airport,Katowice,Poland,KTW,50.4743,19.08
673,Mielec Airport,Mielec,Poland,\N,50.32229995727539,21.462099075317386
674,Poznań-Ławica Airport,Poznan,Poland,POZ,52.4210014343,16.8262996674
675,Rzeszów-Jasionka Airport,Rzeszow,Poland,RZE,50.1100006104,22.018999099699997
676,"Szczecin-Goleniów ""Solidarność"" Airport",Szczecin,Poland,SZZ,53.584701538100006,14.902199745199999
677,Redzikowo Air Base,Slupsk,Poland,OSP,54.47890090942383,17.107500076293945
678,Swidwin Military Air Base,Shapaja,Poland,\N,53.790599823,15.8262996674
679,Warsaw Chopin Airport,Warsaw,Poland,WAW,52.1656990051,20.9671001434
680,Copernicus Wrocław Airport,Wroclaw,Poland,WRO,51.10269927979999,16.885799408
681,Zielona Góra-Babimost Airport,Zielona Gora,Poland,IEG,52.1385002136,15.7986001968
682,Malmen Air Base,Linkoeping,Sweden,\N,58.40230178833008,15.525699615478516
683,Bråvalla Air Base,Norrkoeping,Sweden,\N,58.61090087890625,16.103599548339847
684,Uppsala Airport,Uppsala,Sweden,\N,59.89730072021485,17.588600158691403
685,Ronneby Airport,Ronneby,Sweden,RNB,56.266700744629,15.265000343322999
686,Råda Air Base,Rada,Sweden,\N,58.49810028076172,13.053199768066404
687,Gothenburg-Landvetter Airport,Gothenborg,Sweden,GOT,57.662799835205,12.279800415039
688,Jönköping Airport,Joenkoeping,Sweden,JKG,57.75759887695313,14.068699836730955
689,Falköping Airport,Falkoping,Sweden,\N,58.1697998046875,13.58780002593994
690,Lidköping-Hovby Airport,Lidkoping,Sweden,LDK,58.4655,13.1744
691,Gothenburg City Airport,Gothenborg,Sweden,GSE,57.7747,11.8704
692,Skövde Airport,Skovde,Sweden,KVB,58.45640182495117,13.972700119018555
693,Trollhättan-Vänersborg Airport,Trollhattan,Sweden,THN,58.31809997558594,12.345000267028807
694,Karlsborg Air Base,Karlsborg,Sweden,\N,58.51380157470703,14.507100105285645
695,Såtenäs Air Base,Satenas,Sweden,\N,58.42639923095703,12.714400291442873
696,Barkarby Airport,Stockholm,Sweden,\N,59.41447436439999,17.8821372986
697,Karlskoga Airport,Karlskoga,Sweden,KSK,59.34590148925781,14.49590015411377
698,Mora Airport,Mora,Sweden,MXX,60.957901,14.5114
699,Stockholm Skavsta Airport,Stockholm,Sweden,NYO,58.78860092163086,16.912200927734375
700,Arvika Airport,Arvika,Sweden,\N,59.6759,12.6394
701,Emmaboda Airfield,Emmaboda,Sweden,\N,56.610802,15.6048
702,Feringe Airport,Ljungby,Sweden,\N,56.9502983093,13.921699523900001
703,Kristianstad Airport,Kristianstad,Sweden,KID,55.92169952392578,14.08549976348877
704,Landskrona Airport,Landskrona,Sweden,\N,55.94599914550781,12.869999885559082
705,Oskarshamn Airport,Oskarshamn,Sweden,OSK,57.350497999999995,16.497999
706,Anderstorp Airport,Anderstorp,Sweden,\N,57.264198303222656,13.59939956665039
707,Kalmar Airport,Kalkmar,Sweden,KLR,56.68550109863281,16.287599563598633
708,Malmö Sturup Airport,Malmoe,Sweden,MMX,55.53630536399999,13.3761978149
709,Halmstad Airport,Halmstad,Sweden,HAD,56.69110107421875,12.820199966430664
710,Hagshult Air Base,Hagshult,Sweden,\N,57.292198,14.1372
711,Växjö Kronoberg Airport,Vaxjo,Sweden,VXO,56.929100036621094,14.727999687194824
712,Hallviken Airport,Hallviken,Sweden,\N,63.73830032348633,15.45829963684082
713,Hedlanda Airport,Hede,Sweden,\N,62.40890121459999,13.7472000122
714,Sveg Airport,Sveg,Sweden,EVG,62.04779815673828,14.422900199890135
715,Gällivare Airport,Gallivare,Sweden,GEV,67.13240051269531,20.814599990844727
716,Hudiksvall Airport,Hudiksvall,Sweden,HUV,61.7681007385,17.0806999207
717,Jokkmokk Airport,Jokkmokk,Sweden,\N,66.49620056152344,20.147199630737305
718,Kramfors Sollefteå Airport,Kramfors,Sweden,KRF,63.04859924316406,17.76889991760254
719,Lycksele Airport,Lycksele,Sweden,LYC,64.54830169677734,18.71619987487793
720,Optand Airport,Optand,Sweden,\N,63.12860107421875,14.802800178527832
721,Sundsvall-Härnösand Airport,Sundsvall,Sweden,SDL,62.528099060058594,17.443899154663086
722,Örnsköldsvik Airport,Ornskoldsvik,Sweden,OER,63.40829849243164,18.989999771118164
723,Piteå Airport,Pitea,Sweden,\N,65.39830017089844,21.260799407958984
724,Kiruna Airport,Kiruna,Sweden,KRN,67.821998596191,20.336799621582
725,Orsa Airport,Orsa,Sweden,\N,61.18999862670898,14.712599754333494
726,Skellefteå Airport,Skelleftea,Sweden,SFT,64.62480163574219,21.076900482177734
727,Sättna Airport,Sattna,Sweden,\N,62.4814,17.002899
728,Umeå Airport,Umea,Sweden,UME,63.791801452636996,20.282800674438
729,Vilhelmina Airport,Vilhelmina,Sweden,VHM,64.5791015625,16.833599090576172
730,Arvidsjaur Airport,Arvidsjaur,Sweden,AJR,65.59030151367189,19.28190040588379
731,Örebro Airport,Orebro,Sweden,ORB,59.22370147705078,15.038000106811525
733,Stockholm Västerås Airport,Vasteras,Sweden,VST,59.58940124511719,16.633600234985348
734,Luleå Airport,Lulea,Sweden,LLA,65.543800354004,22.121999740601
735,Vidsel Air Base,Vidsel,Sweden,\N,65.87529754638672,20.149900436401367
736,Arboga Airport,Arboga,Sweden,\N,59.38660049438477,15.924099922180176
737,Stockholm-Arlanda Airport,Stockholm,Sweden,ARN,59.651901245116996,17.918600082397
738,Stockholm-Bromma Airport,Stockholm,Sweden,BMA,59.35440063476562,17.941699981689453
739,Borlange Airport,Borlange,Sweden,BLE,60.42200088500977,15.515199661254885
740,Hultsfred Airport,Hultsfred,Sweden,HLF,57.525799,15.8233
741,Gävle Sandviken Airport,Gavle,Sweden,GVX,60.593299865722656,16.951400756835938
742,Linköping City Airport,Linkoeping,Sweden,LPI,58.406200408900006,15.6805000305
743,Norrköping Airport,Norrkoeping,Sweden,NRK,58.58629989624024,16.250600814819336
745,Eskilstuna Airport,Eskilstuna,Sweden,EKT,59.35110092163086,16.70840072631836
746,Visby Airport,Visby,Sweden,VBY,57.662799835205,18.346200942993
748,Kalixfors Airport,Kalixfors,Sweden,\N,67.76480102539061,20.257200241088867
750,Spangdahlem Air Base,Spangdahlem,Germany,SPM,49.9726982117,6.6925001144400005
751,Ramstein Air Base,Ramstein,Germany,RMS,49.4369010925293,7.600279808044434
753,[Duplicate] Giebelstadt Army Air Field,Giebelstadt,Germany,GHF,49.648101806599996,9.966489791870002
754,Bückeburg Air Base,Brueckeburg,Germany,\N,52.2785,9.08217
755,Celle Airport,Celle,Germany,ZCN,52.59120178222656,10.022100448608398
756,Rheine Bentlage Air Base,Rheine-brentlange,Germany,\N,52.291199,7.3870000000000005
757,Fritzlar Airport,Fritzlar,Germany,FRZ,51.1146,9.286
758,Laupheim Air Base,Laupheim,Germany,\N,48.220299,9.91002
759,Mendig Airfield,Mendig,Germany,\N,50.366001000000004,7.31533
760,Niederstetten Army Air Base,Niederstetten,Germany,\N,49.391945,9.958889
761,Roth Airport,Roth,Germany,\N,49.21749877929688,11.100199699401855
762,Fassberg Air Base,Fassberg,Germany,\N,52.919399,10.185827
763,Grafenwohr Army Air Field,Grafenwoehr,Germany,\N,49.69869995117188,11.940199851989744
764,Hanau Army Air Field,Hanau,Germany,ZNF,50.169201,8.96159
765,Hohenfels Army Air Field,Hohenfels,Germany,\N,49.21810150146485,11.836099624633787
766,Flugplatz Kitzingen,Kitzingen,Germany,KZG,49.743099,10.2006
767,Nordholz Naval Airbase,Nordholz,Germany,FCN,53.767700195299994,8.658499717709999
768,Diepholz Air Base,Diepholz,Germany,\N,52.585556000000004,8.342222
769,Geilenkirchen Air Base,Geilenkirchen,Germany,GKE,50.9608,6.04242
770,Hohn Air Base,Hohn,Germany,\N,54.312199,9.53817
771,Jever Air Base,Jever,Germany,\N,53.533501,7.888669999999999
772,Rostock-Laage Airport,Laage,Germany,RLG,53.9182014465,12.2783002853
773,Nörvenich Air Base,Noervenich,Germany,\N,50.8312,6.65817
774,Schleswig Air Base,Schleswig,Germany,WBG,54.459301,9.51633
775,Wittmundhafen Airport,Wittmundhafen,Germany,\N,53.54779815673828,7.667329788208008
777,Wunstorf Air Base,Wunstorf,Germany,\N,52.457298,9.42717
778,Vilseck Army Air Field,Vilseck,Germany,\N,49.63359832763672,11.767200469970705
779,Coleman Army Air Field,Coleman,Germany,\N,49.5635986328125,8.463390350341799
780,Wiesbaden Army Airfield,Wiesbaden,Germany,WIE,50.04980087280274,8.325400352478027
781,Landsberg Lech Air Base,Landsberg,Germany,\N,48.070599,10.905999999999999
782,Büchel Air Base,Buechel,Germany,\N,50.1738014221,7.06333017349
783,Erding Airport,Erding,Germany,\N,48.32229995727539,11.948699951171875
784,Fürstenfeldbruck Air Base,Fuerstenfeldbruck,Germany,FEL,48.205555,11.266944
785,Holzdorf Air Base,Holzdorf,Germany,\N,51.767799,13.1677
786,Ingolstadt Manching Airport,Ingolstadt,Germany,IGS,48.7156982421875,11.534000396728516
787,Lechfeld Air Base,Lechfeld,Germany,\N,48.185503999999995,10.8612
788,Neuburg AFB,Neuburg,Germany,\N,48.710999,11.2115
789,Gütersloh Air Base,Guetersloh,Germany,GUT,51.922798,8.30633
790,Alexander Bay Airport,Alexander Bay,South Africa,ALJ,-28.575001,16.5333
791,Aggeneys Airport,Aggeneys,South Africa,AGZ,-29.28179931640625,18.813899993896484
792,Brakpan Airport,Brakpan,South Africa,\N,-26.23859977722168,28.301799774169922
793,Bisho Airport,Bisho,South Africa,BIY,-32.897098541300004,27.2791004181
794,Bram Fischer International Airport,Bloemfontein,South Africa,BFN,-29.092699050900002,26.302400589
795,Bethlehem Airport,Bethlehem,South Africa,\N,-28.248399734499998,28.3360996246
796,Hendrik Potgieter Airport,Bothaville,South Africa,\N,-27.36680030822754,26.62919998168945
797,Cape Town International Airport,Cape Town,South Africa,CPT,-33.9648017883,18.6016998291
798,Calvinia Airport,Calvinia,South Africa,\N,-31.50029945373535,19.725900650024414
799,King Shaka International Airport,Durban,South Africa,DUR,-29.6144444444,31.119722222199997
800,Ben Schoeman Airport,East London,South Africa,ELS,-33.0355987549,27.825899124099998
801,Ermelo Airport,Ermelo,South Africa,\N,-26.4955997467041,29.979799270629886
802,Ficksburg Sentraoes Airport,Ficksburg,South Africa,FCB,-28.82309913635254,27.908899307250977
803,Grand Central Airport,Johannesburg,South Africa,GCJ,-25.986299514799995,28.1401004791
804,George Airport,George,South Africa,GRJ,-34.0056,22.378902
806,Graaff Reinet Airport,Graaff Reinet,South Africa,\N,-32.19359970092773,24.541400909423828
807,Grahamstown Airport,Grahamstown,South Africa,\N,-33.284698486328125,26.49810028076172
808,Greytown Airport,Greytown,South Africa,\N,-29.1219997406,30.5867004395
809,Harmony Airport,Harmony,South Africa,\N,-28.07869911193848,26.8612003326416
810,Harrismith Airport,Harrismith,South Africa,HRS,-28.23509979248047,29.10619926452637
811,Hoedspruit Air Force Base Airport,Hoedspruit,South Africa,HDS,-24.3686008453,31.048700332600003
812,Gariep Dam Airport,Hendrik Verwoerddam,South Africa,\N,-30.56220054626465,25.52829933166504
813,OR Tambo International Airport,Johannesburg,South Africa,JNB,-26.1392,28.246
814,P C Pelser Airport,Klerksdorp,South Africa,KXE,-26.8710994720459,26.718000411987305
815,Kimberley Airport,Kimberley,South Africa,KIM,-28.802799224900003,24.765199661300002
816,Krugersdorp Airport,Krugersdorp,South Africa,\N,-26.080825919899997,27.725914955100002
817,Kroonstad Airport,Kroonstad,South Africa,\N,-27.660600662231445,27.31579971313477
818,Johan Pienaar Airport,Kuruman,South Africa,KMH,-27.45669937133789,23.411399841308594
819,Kleinsee Airport,Kleinsee,South Africa,KLZ,-29.688400268600002,17.093999862700002
820,Lanseria Airport,Johannesburg,South Africa,HLA,-25.9384994507,27.926099777199997
821,Lichtenburg Airport,Lichtenburg,South Africa,\N,-26.17569923400879,26.184600830078125
822,Makhado Air Force Base Airport,Lambertsbaai,South Africa,\N,-23.159900665283203,29.69650077819824
823,Langebaanweg Airport,Langebaanweg,South Africa,SDB,-32.9688987732,18.1602993011
824,Ladysmith Airport,Ladysmith,South Africa,LAY,-28.5816993713,29.7497005463
825,Middelburg Airport,Middelburg,South Africa,\N,-25.684799194335934,29.440200805664066
827,Margate Airport,Margate,South Africa,MGH,-30.8574008942,30.343000412
828,Marble Hall Airport,Marble Hall,South Africa,\N,-24.98909950256348,29.283100128173828
829,Majuba Power Station Airport,Majuba Power Station,South Africa,\N,-27.079299926799997,29.7784996033
831,Riverside Airport,Malalane,South Africa,LLE,-25.4300003052,31.5767002106
832,Morningside Farm Airport,Musina,South Africa,\N,-25.7045001984,26.9090003967
833,Mkuze Airport,Mkuze,South Africa,MZQ,-27.62610054016113,32.044300079345696
834,Newcastle Airport,Newcastle,South Africa,NCS,-27.7705993652,29.9769001007
835,Nylstroom Airfield,Nylstroom,South Africa,\N,-24.68610000610352,28.43490028381348
836,Overberg Airport,Overberg,South Africa,OVG,-34.554901123,20.250699996900003
837,Oudtshoorn Airport,Oudtshoorn,South Africa,OUH,-33.6069984436,22.188999176
838,Port Elizabeth Airport,Port Elizabeth,South Africa,PLZ,-33.984901428200004,25.617300033600003
839,Plettenberg Bay Airport,Plettenberg Bay,South Africa,PBZ,-34.0881601675,23.3287234306
840,Hendrik Van Eck Airport,Phalaborwa,South Africa,PHW,-23.9372005463,31.1553993225
841,Pietersburg Municipal Airport,Polokwane,South Africa,\N,-23.926099777199997,29.484399795500003
842,Port St Johns Airport,Port Saint Johns,South Africa,JOH,-31.605899810791016,29.51980018615723
843,Pietermaritzburg Airport,Pietermaritzburg,South Africa,PZB,-29.6490001678,30.3987007141
844,Pilanesberg International Airport,Pilanesberg,South Africa,NTY,-25.333799362199997,27.173400878900004
845,Polokwane International Airport,Potgietersrus,South Africa,PTG,-23.845269000000002,29.458615
846,Potchefstroom Airport,Potchefstroom,South Africa,PCF,-26.670999527,27.081899642899998
847,Parys Airport,Parys,South Africa,\N,-26.889299392700195,27.503400802612305
848,Queenstown Airport,Queenstown,South Africa,UTW,-31.92020034790039,26.88220024108887
849,Richards Bay Airport,Richard's Bay,South Africa,RCB,-28.740999221800003,32.0920982361
850,Rustenburg Airport,Rustenburg,South Africa,\N,-25.6443004608,27.2710990906
851,Robertson Airport,Robertson,South Africa,ROD,-33.812198638916016,19.90279960632324
852,Springbok Airport,Springbok,South Africa,SBU,-29.68930053710937,17.939599990844727
853,Secunda Airport,Secunda,South Africa,ZEC,-26.52409935,29.1700992584
854,Saldanha /Vredenburg Airport,Saldanha,South Africa,\N,-32.964099884,17.9692993164
855,Springs Airfield,Springs,South Africa,\N,-26.2494004736,28.398271560700003
856,Swartkop Air Force Base,Swartkop,South Africa,\N,-25.809700012199997,28.1646003723
857,Sishen Airport,Sishen,South Africa,SIS,-27.6485996246,22.9993000031
858,Hendrik Swellengrebel Airport,Swellendam,South Africa,\N,-34.04819869995117,20.47459983825684
859,Skukuza Airport,Skukuza,South Africa,SZK,-24.960899353000002,31.588699340799998
860,Tommys Field Airport,Tommy's Field,South Africa,\N,-28.26000022888184,22.993200302124023
861,New Tempe Airport,Bloemfontein,South Africa,\N,-29.032899856567386,26.15760040283203
862,Tutuka Power Station Airport,Tutuka,South Africa,\N,-26.776599884,29.3388004303
863,Tzaneen Airport,Tzaneen,South Africa,LTA,-23.824399948099998,30.329299926799997
864,Prince Mangosuthu Buthelezi Airport,Ulundi,South Africa,ULD,-28.320600509600002,31.4165000916
865,Pierre Van Ryneveld Airport,Upington,South Africa,UTN,-28.39909935,21.260200500499998
866,K. D. Matanzima Airport,Umtata,South Africa,UTT,-31.5463631849,28.6733551025
867,Vryburg Airport,Vryburg,South Africa,VRU,-26.9824008942,24.728799819899997
868,Virginia Airport,Durban,South Africa,VIR,-29.77059936523437,31.05839920043945
869,Vredendal Airport,Vredendal,South Africa,VRE,-31.641000747680664,18.5447998046875
870,Vereeniging Airport,Vereeniging,South Africa,\N,-26.566400528000003,27.9608001709
871,Wonderboom Airport,Pretoria,South Africa,PRY,-25.6539,28.224199
872,Witbank Airport,Witbank,South Africa,\N,-25.832300186199998,29.1919994354
873,Waterkloof Air Force Base,Waterkloof,South Africa,WKF,-25.829999923699997,28.222499847399998
874,Welkom Airport,Welkom,South Africa,\N,-27.9968245111,26.6633338928
875,Ysterplaat Air Force Base,Ysterplaat,South Africa,\N,-33.90019989013672,18.498300552368164
876,Zeerust Airport,Zeerust,South Africa,\N,-25.59900093078613,26.042299270629886
877,Francistown Airport,Francistown,Botswana,FRW,-21.15959930419922,27.47450065612793
878,Jwaneng Airport,Jwaneng,Botswana,JWA,-24.6023006439209,24.69099998474121
879,Kasane Airport,Kasane,Botswana,BBK,-17.83289909362793,25.16239929199219
880,Maun Airport,Maun,Botswana,MUB,-19.97260093688965,23.431100845336914
881,Sir Seretse Khama International Airport,Gaberone,Botswana,GBE,-24.555201,25.9182
882,Selebi Phikwe Airport,Selebi-phikwe,Botswana,PKW,-22.0583,27.8288
883,Maya-Maya Airport,Brazzaville,Congo (Brazzaville),BZV,-4.251699924468993,15.253000259399414
884,Owando Airport,Owando,Congo (Kinshasa),FTX,-0.5313500165939331,15.95009994506836
885,Ouesso Airport,Ouesso,Congo (Kinshasa),OUE,1.6159900426899998,16.0379009247
886,Pointe Noire Airport,Pointe-noire,Congo (Brazzaville),PNR,-4.816030025482178,11.88659954071045
887,Matsapha Airport,Manzini,Swaziland,MTS,-26.52899932861328,31.3075008392334
888,Bangui M'Poko International Airport,Bangui,Central African Republic,BGF,4.39847993850708,18.518800735473636
889,Berbérati Airport,Berberati,Central African Republic,BBT,4.221580028533936,15.786399841308596
890,Bata Airport,Bata,Equatorial Guinea,BSG,1.9054700136184688,9.80568027496338
891,Malabo Airport,Malabo,Equatorial Guinea,SSG,3.7552700042724614,8.708720207214355
892,RAF Ascension Island,Wide Awake,Saint Helena,ASI,-7.9696,-14.3937
893,Sir Seewoosagur Ramgoolam International Airport,Plaisance,Mauritius,MRU,-20.430201,57.683601
894,Sir Charles Gaetan Duval Airport,Rodriguez Island,Mauritius,RRG,-19.7577,63.361000000000004
895,Diego Garcia Naval Support Facility,Diego Garcia Island,British Indian Ocean Territory,NKW,-7.313269999999999,72.411102
896,Tiko Airport,Tiko,Cameroon,TKC,4.08919000626,9.360529899600001
897,Douala International Airport,Douala,Cameroon,DLA,4.0060801506,9.71947956085
898,Salak Airport,Maroua,Cameroon,MVR,10.45139980316162,14.257399559020994
899,Foumban Nkounja Airport,Foumban,Cameroon,FOM,5.636919975280763,10.750800132751463
900,N'Gaoundéré Airport,N'gaoundere,Cameroon,NGE,7.357009887695312,13.559200286865234
901,Garoua International Airport,Garoua,Cameroon,GOU,9.33588981628418,13.370100021362305
902,Bafoussam Airport,Bafoussam,Cameroon,BFX,5.536920070650001,10.3545999527
903,Bamenda Airport,Bamenda,Cameroon,BPC,6.0392398834228525,10.122599601745604
904,Yaoundé Airport,Yaounde,Cameroon,YAO,3.8360400199890137,11.523500442504885
905,Kasompe Airport,Kasompe,Zambia,CGJ,-12.572799682617,27.893899917603
906,Livingstone Airport,Livingstone,Zambia,LVI,-17.821800231933594,25.82270050048828
907,Kenneth Kaunda International Airport Lusaka,Lusaka,Zambia,LUN,-15.330800056500001,28.4526004791
908,Mfuwe Airport,Mfuwe,Zambia,MFU,-13.258899688720705,31.93659973144531
909,Mongu Airport,Mongu,Zambia,MNR,-15.25450038909912,23.16230010986328
910,Simon Mwansa Kapwepwe International Airport,Ndola,Zambia,NLA,-12.998100280762,28.66489982605
911,Southdowns Airport,Southdowns,Zambia,KIW,-12.900500297546387,28.14990043640137
912,Prince Said Ibrahim International Airport,Moroni,Comoros,HAH,-11.5337,43.2719
913,Mohéli Bandar Es Eslam Airport,Moheli,Comoros,NWA,-12.298100471496582,43.76639938354492
914,Ouani Airport,Anjouan,Comoros,AJN,-12.131699562072756,44.43030166625977
915,Dzaoudzi Pamandzi International Airport,Dzaoudzi,Mayotte,DZA,-12.804699897766113,45.28110122680664
916,Roland Garros Airport,St.-denis,Reunion,RUN,-20.88710021972656,55.51029968261719
917,Pierrefonds Airport,St.-pierre,Reunion,ZSE,-21.320899963378906,55.42499923706055
918,Ivato Airport,Antananarivo,Madagascar,TNR,-18.7969,47.478802
919,Miandrivazo Airport,Miandrivazo,Madagascar,ZVA,-19.56279945373535,45.45080184936523
920,Sainte Marie Airport,Sainte Marie,Madagascar,SMS,-17.093900680541992,49.81579971313477
921,Toamasina Airport,Toamasina,Madagascar,TMM,-18.109500885009766,49.39250183105469
922,Morondava Airport,Morondava,Madagascar,MOQ,-20.28470039367676,44.31760025024414
923,Arrachart Airport,Antsiranana,Madagascar,DIE,-12.34939956665039,49.29169845581055
924,Mananara Nord Airport,Mananara,Madagascar,WMR,-16.16390037536621,49.77379989624024
925,Andapa Airport,Andapa,Madagascar,ZWA,-14.651700019836426,49.62060165405274
926,Ambilobe Airport,Ambilobe,Madagascar,AMB,-13.188400268554688,48.987998962402344
927,Antsirabato Airport,Antalaha,Madagascar,ANM,-14.99940013885498,50.3202018737793
928,Analalava Airport,Analalava,Madagascar,HVA,-14.62969970703125,47.76380157470703
929,Amborovy Airport,Mahajanga,Madagascar,MJN,-15.6668417421,46.351232528699995
930,Fascene Airport,Nosy-be,Madagascar,NOS,-13.3121004105,48.3148002625
931,Besalampy Airport,Besalampy,Madagascar,BPY,-16.744530296500002,44.4824838638
932,Maroantsetra Airport,Maroantsetra,Madagascar,WMN,-15.436699867248535,49.68830108642578
933,Sambava Airport,Sambava,Madagascar,SVB,-14.278599739074707,50.17470169067383
934,Vohimarina Airport,Vohemar,Madagascar,VOH,-13.375800132751465,50.00279998779297
935,Ambalabe Airport,Antsohihy,Madagascar,WAI,-14.898799896240234,47.99390029907226
936,Ampampamena Airport,Ampampamena,Madagascar,IVA,-13.484816,48.632702
937,Tôlanaro Airport,Tolagnaro,Madagascar,FTU,-25.03809928894043,46.95610046386719
938,Fianarantsoa Airport,Fianarantsoa,Madagascar,WFI,-21.441600799560547,47.11169815063477
939,Farafangana Airport,Farafangana,Madagascar,RVA,-22.80529975891113,47.82059860229492
940,Manakara Airport,Manakara,Madagascar,WVK,-22.119699478149414,48.02170181274414
941,Mananjary Airport,Mananjary,Madagascar,MNJ,-21.201799392700195,48.358299255371094
942,Morombe Airport,Morombe,Madagascar,MXM,-21.7539005279541,43.3754997253418
943,Toliara Airport,Toliara,Madagascar,TLE,-23.383399963378906,43.72850036621094
944,Mbanza Congo Airport,M'banza-congo,Angola,SSY,-6.269899845123291,14.246999740600586
945,Benguela Airport,Benguela,Angola,BUG,-12.609000206,13.403699874900001
946,Cabinda Airport,Cabinda,Angola,CAB,-5.59699010848999,12.188400268554688
948,Nova Lisboa Airport,Huambo,Angola,NOV,-12.808899879455565,15.760499954223633
949,Kuito Airport,Kuito,Angola,SVP,-12.404600143433,16.947399139404
950,Lobito Airport,Lobito,Angola,\N,-12.37119960784912,13.536600112915039
951,Quatro de Fevereiro Airport,Luanda,Angola,LAD,-8.858369999999999,13.2312
952,Malanje Airport,Malanje,Angola,MEG,-9.525090217590332,16.312400817871097
953,Menongue Airport,Menongue,Angola,SPP,-14.657600402832033,17.71980094909668
955,Negage Airport,Negage,Angola,GXG,-7.754509925842285,15.287699699401855
956,Porto Amboim Airport,Porto Amboim,Angola,PBN,-10.722000122070312,13.76550006866455
957,Saurimo Airport,Saurimo,Angola,VHC,-9.689069747924805,20.431900024414066
958,Soyo Airport,Soyo,Angola,SZA,-6.141089916229247,12.371800422668455
959,Lubango Airport,Lubango,Angola,SDD,-14.924699783325195,13.574999809265135
960,Luena Airport,Luena,Angola,LUO,-11.768099784851074,19.8976993560791
961,Uige Airport,Uige,Angola,UGO,-7.60306978225708,15.027799606323242
962,Xangongo Airport,Xangongo,Angola,XGN,-16.755399703979492,14.965299606323242
963,Oyem Airport,Oyem,Gabon,OYE,1.5431100130081177,11.581399917602539
964,Okondja Airport,Okondja,Gabon,OKN,-0.6652140021324158,13.673100471496582
965,Lambarene Airport,Lambarene,Gabon,LBQ,-0.7043889760971069,10.245699882507324
966,Bitam Airport,Bitam,Gabon,BMM,2.0756399631500244,11.493200302124025
967,Port Gentil Airport,Port Gentil,Gabon,POG,-0.7117390036582947,8.754380226135254
968,Omboue Hopital Airport,Omboue Hospial,Gabon,OMB,-1.5747300386428833,9.262689590454102
969,Makokou Airport,Makokou,Gabon,MKU,0.5792109966278076,12.890899658203125
970,Libreville Leon M'ba International Airport,Libreville,Gabon,LBV,0.45860001444799997,9.4122800827
971,M'Vengue El Hadj Omar Bongo Ondimba International Airport,Franceville,Gabon,MVB,-1.6561599969863892,13.437999725341795
972,Principe Airport,Principe,Sao Tome and Principe,PCP,1.6629400253295898,7.411739826202393
973,São Tomé International Airport,Sao Tome,Sao Tome and Principe,TMS,0.3781749904155731,6.712150096893311
974,Beira Airport,Beira,Mozambique,BEW,-19.79640007019043,34.90760040283203
976,Inhambane Airport,Inhambane,Mozambique,INH,-23.876399993896484,35.40850067138672
977,Lichinga Airport,Lichinga,Mozambique,VXC,-13.274000000000001,35.2663
978,Lumbo Airport,Lumbo,Mozambique,LFB,-15.0331001282,40.671699523899996
979,Maputo Airport,Maputo,Mozambique,MPM,-25.920799,32.572601
980,Mueda Airport,Mueda,Mozambique,MUD,-11.672900199890135,39.5630989074707
981,Mocímboa da Praia Airport,Mocimboa Da Praia,Mozambique,MZB,-11.36180019378662,40.35490036010742
982,Marrupa Airport,Marrupa,Mozambique,\N,-13.225099563598633,37.552101135253906
983,Nacala Airport,Nacala,Mozambique,MNC,-14.488200187683105,40.71220016479492
984,Nampula Airport,Nampula,Mozambique,APL,-15.105600357055664,39.28179931640625
985,Pemba Airport,Pemba,Mozambique,POL,-12.991762161254885,40.52401351928711
986,Quelimane Airport,Quelimane,Mozambique,UEL,-17.855499267578125,36.86909866333008
987,Songo Airport,Songo,Mozambique,\N,-15.602700233459473,32.77320098876953
988,Chingozi Airport,Tete,Mozambique,TET,-16.104799270629886,33.64020156860352
989,Ulongwe Airport,Ulongwe,Mozambique,\N,-14.70460033416748,34.352401733398445
990,Vilankulo Airport,Vilankulu,Mozambique,VNX,-22.018400192260746,35.31330108642578
991,Alphonse Airport,Alphonse,Seychelles,\N,-7.00478,52.7262
992,Desroches Airport,Desroches,Seychelles,DES,-5.6967,53.6558
993,Farquhar Airport,Farquhar,Seychelles,\N,-10.1096,51.176102
994,Seychelles International Airport,Mahe,Seychelles,SEZ,-4.67434,55.521801
995,Praslin Airport,Praslin,Seychelles,PRI,-4.3192901611328125,55.69139862060547
996,Coetivy Airport,Coetivy,Seychelles,\N,-7.13457,56.278197999999996
997,Abeche Airport,Abeche,Chad,AEH,13.847000122070312,20.84429931640625
998,Moundou Airport,Moundou,Chad,MQQ,8.624409675598145,16.071399688720707
999,N'Djamena International Airport,N'djamena,Chad,NDJ,12.1337,15.034
1000,Faya Largeau Airport,Faya-largeau,Chad,FYT,17.91710090637207,19.111099243164066
1001,Joshua Mqabuko Nkomo International Airport,Bulawayo,Zimbabwe,BUQ,-20.017401,28.617901
1002,Charles Prince Airport,Harare,Zimbabwe,\N,-17.75160026550293,30.924699783325195
1003,Buffalo Range Airport,Chiredzi,Zimbabwe,BFO,-21.008101,31.5786
1004,Victoria Falls International Airport,Victoria Falls,Zimbabwe,VFA,-18.09589958190918,25.839000701904297
1005,Robert Gabriel Mugabe International Airport,Harare,Zimbabwe,HRE,-17.931801,31.0928
1006,Kariba International Airport,Kariba,Zimbabwe,KAB,-16.519800186157227,28.88500022888184
1007,Mutoko Airport,Mutoko,Zimbabwe,\N,-17.431900024414062,32.18450164794922
1008,Mutare Airport,Mutare,Zimbabwe,UTA,-18.997499465942,32.627201080321996
1009,Masvingo International Airport,Masvingo,Zimbabwe,MVZ,-20.055299758911133,30.859100341796875
1010,Zvishavane Airport,Zvishavane,Zimbabwe,\N,-20.289499282836914,30.08819961547852
1011,Thornhill Air Base,Gwert,Zimbabwe,GWE,-19.436399459838867,29.861900329589844
1012,Hwange National Park Airport,Hwange National Park,Zimbabwe,HWN,-18.62989997863769,27.020999908447266
1013,Chileka International Airport,Blantyre,Malawi,BLZ,-15.679100036621096,34.9739990234375
1014,Karonga Airport,Karonga,Malawi,KGJ,-9.953570365905762,33.893001556396484
1015,Kasungu Airport,Kasungu,Malawi,KBQ,-13.014599800109865,33.46860122680664
1016,Lilongwe International Airport,Lilongwe,Malawi,LLW,-13.7894001007,33.78099823
1017,Mzuzu Airport,Mzuzu,Malawi,ZZU,-11.444700241088867,34.01179885864258
1018,Moshoeshoe I International Airport,Maseru,Lesotho,MSU,-29.462299346923828,27.552499771118164
1019,Mejametalana Airbase,Maseru,Lesotho,\N,-29.30410003662109,27.50349998474121
1020,Ndjili International Airport,Kinshasa,Congo (Kinshasa),FIH,-4.38575,15.4446
1021,Ndolo Airport,Kinshasa,Congo (Kinshasa),NLO,-4.32666015625,15.327500343322999
1022,Muanda Airport,Muanda,Congo (Kinshasa),MNB,-5.9308600425720215,12.351799964904785
1023,Kitona Base Airport,Kitona Base,Congo (Kinshasa),\N,-5.918059825897218,12.447699546813965
1024,Bandundu Airport,Bandoundu,Congo (Kinshasa),FDU,-3.3113200664520264,17.38170051574707
1025,Kikwit Airport,Kikwit,Congo (Kinshasa),KKW,-5.0357699394226065,18.785600662231445
1026,Mbandaka Airport,Mbandaka,Congo (Kinshasa),MDK,0.0226000007242,18.2887001038
1027,Gbadolite Airport,Gbadolite,Congo (Kinshasa),BDT,4.2532100677490225,20.975299835205078
1028,Gemena Airport,Gemena,Congo (Kinshasa),GMA,3.23536992073,19.7712993622
1029,Kotakoli Airport,Kotakoli,Congo (Kinshasa),KLI,4.157639980316162,21.65089988708496
1030,Lisala Airport,Lisala,Congo (Kinshasa),LIQ,2.17066,21.496901
1031,Bangoka International Airport,Kisangani,Congo (Kinshasa),FKI,0.48163899779299996,25.337999343899998
1032,Matari Airport,Isiro,Congo (Kinshasa),IRP,2.8276100158691406,27.58830070495605
1033,Bunia Airport,Bunia,Congo (Kinshasa),BUX,1.5657199621200562,30.220800399780273
1034,Buta Zega Airport,Buta Zega,Congo (Kinshasa),BZU,2.818350076675415,24.79369926452637
1035,Bukavu Kavumu Airport,Bukavu/kavumu,Congo (Kinshasa),BKY,-2.3089799880981445,28.808799743652344
1036,Goma International Airport,Goma,Congo (Kinshasa),GOM,-1.670809984207153,29.23850059509277
1037,Kindu Airport,Kindu,Congo (Kinshasa),KND,-2.91917991638,25.9153995514
1038,Lubumbashi International Airport,Lubumashi,Congo (Kinshasa),FBM,-11.5913000107,27.5308990479
1039,Kolwezi Airport,Kolwezi,Congo (Kinshasa),KWZ,-10.765899658203123,25.505699157714844
1040,Kalemie Airport,Kalemie,Congo (Kinshasa),FMI,-5.8755598068237305,29.25
1041,Kamina Base Airport,Kamina Base,Congo (Kinshasa),KMN,-8.642020225524902,25.252899169921875
1042,Kananga Airport,Kananga,Congo (Kinshasa),KGA,-5.90005016327,22.4692001343
1043,Mbuji Mayi Airport,Mbuji-mayi,Congo (Kinshasa),MJM,-6.121240139010001,23.5690002441
1044,Modibo Keita International Airport,Bamako,Mali,BKO,12.5335,-7.94994
1045,Gao Airport,Gao,Mali,GAQ,16.24839973449707,-0.005456000100821257
1046,Kayes Dag Dag Airport,Kayes,Mali,KYS,14.481200218200685,-11.404399871826172
1047,Mopti Airport,Mopti,Mali,MZI,14.5128002167,-4.07955980301
1048,Timbuktu Airport,Tombouctou,Mali,TOM,16.730499267578125,-3.0075800418853764
1049,Tessalit Airport,Tessalit,Mali,\N,20.243000030517575,0.9773079752922058
1050,Banjul International Airport,Banjul,Gambia,BJL,13.338000297546387,-16.65220069885254
1051,Fuerteventura Airport,Fuerteventura,Spain,FUE,28.452699661254886,-13.863800048828125
1052,Hierro Airport,Hierro,Spain,VDE,27.814800262451172,-17.887100219726562
1053,La Palma Airport,Santa Cruz De La Palma,Spain,SPC,28.626499,-17.7556
1054,Gran Canaria Airport,Gran Canaria,Spain,LPA,27.931900024414066,-15.38659954071045
1055,Lanzarote Airport,Arrecife,Spain,ACE,28.945498999999998,-13.6052
1056,Tenerife South Airport,Tenerife,Spain,TFS,28.044500351,-16.5725002289
1057,Tenerife Norte Airport,Tenerife,Spain,TFN,28.4827003479,-16.341499328599998
1058,Melilla Airport,Melilla,Spain,MLN,35.279800415,-2.9562599658999997
1059,Lungi International Airport,Freetown,Sierra Leone,FNA,8.616439999999999,-13.1955
1060,Cufar Airport,Cufar,Guinea-Bissau,\N,11.2878999710083,-15.180500030517578
1062,Spriggs Payne Airport,Monrovia,Liberia,MLW,6.289060115814209,-10.758700370788574
1063,Roberts International Airport,Monrovia,Liberia,ROB,6.23379,-10.3623
1064,Al Massira Airport,Agadir,Morocco,AGA,30.32500076293945,-9.41306972503662
1065,Tan Tan Airport,Tan Tan,Morocco,TTA,28.448200225830078,-11.161299705505373
1066,Saïss Airport,Fes,Morocco,FEZ,33.927299499499995,-4.977960109709999
1067,Ifrane Airport,Ifrane,Morocco,\N,33.505298614501946,-5.152900218963623
1068,Moulay Ali Cherif Airport,Er-rachidia,Morocco,ERH,31.947500228899997,-4.39833021164
1069,Bassatine Airport,Meknes,Morocco,MEK,33.879100799560554,-5.515120029449463
1070,Angads Airport,Oujda,Morocco,OUD,34.78720092773437,-1.92399001121521
1071,Ben Slimane Airport,Ben Slimane,Morocco,GMD,33.655398999999996,-7.22145
1072,Rabat-Salé Airport,Rabat,Morocco,RBA,34.051497999999995,-6.751519999999999
1074,Mohammed V International Airport,Casablanca,Morocco,CMN,33.36750030517578,-7.589970111846924
1075,Menara Airport,Marrakech,Morocco,RAK,31.6068992615,-8.036299705510002
1076,Kenitra Airport,Kentira,Morocco,NNA,34.298900604248054,-6.5958800315856925
1077,Ouarzazate Airport,Ouarzazate,Morocco,OZZ,30.939100265500002,-6.909430027010001
1078,Cherif Al Idrissi Airport,Al Hociema,Morocco,AHU,35.177101135253906,-3.83951997756958
1079,Saniat R'mel Airport,Tetouan,Morocco,TTU,35.594299316406,-5.320020198822
1080,Ibn Batouta Airport,Tanger,Morocco,TNG,35.726898193400004,-5.916890144349999
1081,Ziguinchor Airport,Ziguinchor,Senegal,ZIG,12.5556,-16.281799
1082,Cap Skirring Airport,Cap Skiring,Senegal,CSK,12.39533,-16.748
1083,Kaolack Airport,Kaolack,Senegal,KLC,14.146900177001953,-16.051300048828125
1084,Léopold Sédar Senghor International Airport,Dakar,Senegal,DKR,14.739700317382812,-17.49020004272461
1085,Saint Louis Airport,St. Louis,Senegal,XLS,16.050800323486328,-16.463199615478516
1086,Bakel Airport,Bakel,Senegal,BXE,14.847299575805664,-12.468299865722654
1087,Kédougou Airport,Kedougou,Senegal,KGG,12.57229995727539,-12.22029972076416
1088,Tambacounda Airport,Tambacounda,Senegal,TUD,13.73680019378662,-13.65310001373291
1089,Aioun el Atrouss Airport,Aioun El Atrouss,Mauritania,AEO,16.711299896240234,-9.637880325317383
1090,Tidjikja Airport,Tidjikja,Mauritania,TIY,18.57010078430176,-11.423500061035154
1091,Kiffa Airport,Kiffa,Mauritania,KFA,16.59000015258789,-11.406200408935547
1092,Néma Airport,Nema,Mauritania,EMN,16.621999740600586,-7.3165998458862305
1093,Kaédi Airport,Kaedi,Mauritania,KED,16.159500122070312,-13.50759983062744
1094,Nouakchott–Oumtounsy International Airport,Nouakschott,Mauritania,NKC,18.31,-15.969722199999998
1095,Sélibaby Airport,Selibabi,Mauritania,SEY,15.179699897766113,-12.207300186157227
1096,Atar International Airport,Atar,Mauritania,ATR,20.506799697875977,-13.04319953918457
1097,Nouadhibou International Airport,Nouadhibou,Mauritania,NDB,20.9330997467041,-17.030000686645508
1098,Bir Moghrein Airport,Bir Moghrein,Mauritania,\N,25.2367000579834,-11.588700294494627
1099,Fria Airport,Fira,Guinea,FIG,10.350600242615,-13.569199562072999
1100,Faranah Airport,Faranah,Guinea,FAA,10.0354995728,-10.7698001862
1101,Tata Airport,Labe,Guinea,LEK,11.326100349426,-12.286800384521001
1102,Amílcar Cabral International Airport,Amilcar Cabral,Cape Verde,SID,16.7414,-22.9494
1103,Rabil Airport,Boa Vista,Cape Verde,BVC,16.136499404907227,-22.888900756835934
1104,Maio Airport,Maio,Cape Verde,MMO,15.15590000152588,-23.21369934082031
1105,Preguiça Airport,Sao Nocolau Island,Cape Verde,SNE,16.58839988708496,-24.28470039367676
1106,São Pedro Airport,Sao Vicente Island,Cape Verde,VXE,16.833200454711914,-25.05529975891113
1107,Addis Ababa Bole International Airport,Addis Ababa,Ethiopia,ADD,8.97789001465,38.7993011475
1108,Lideta Army Airport,Addis Ababa,Ethiopia,\N,9.003685,38.725497999999995
1109,Arba Minch Airport,Arba Minch,Ethiopia,AMH,6.0393900871276855,37.59049987792969
1110,Axum Airport,Axum,Ethiopia,AXU,14.14680004119873,38.77280044555664
1111,Bahir Dar Airport,Bahar Dar,Ethiopia,BJR,11.608099937438965,37.32160186767578
1112,Aba Tenna Dejazmach Yilma International Airport,Dire Dawa,Ethiopia,DIR,9.624699592590332,41.85419845581055
1113,Gambella Airport,Gambella,Ethiopia,GMB,8.12876033782959,34.563098907470696
1114,Gonder Airport,Gondar,Ethiopia,GDQ,12.51990032196045,37.433998107910156
1116,Jimma Airport,Jimma,Ethiopia,JIM,7.66609001159668,36.81660079956055
1117,Lalibella Airport,Lalibella,Ethiopia,LLI,11.975000381469727,38.97999954223633
1118,Mekele Airport,Makale,Ethiopia,MQX,13.467399597167967,39.53350067138672
1119,Asosa Airport,Asosa,Ethiopia,ASO,10.018500328063963,34.586299896240234
1120,Bujumbura International Airport,Bujumbura,Burundi,BJM,-3.3240199089050293,29.318500518798828
1121,Egal International Airport,Hargeisa,Somalia,HGA,9.518170356750488,44.08879852294922
1122,Berbera Airport,Berbera,Somalia,BBO,10.389200210571287,44.94110107421875
1123,Kisimayu Airport,Kismayu,Somalia,KMU,-0.3773530125617981,42.45920181274414
1126,El Nouzha Airport,Alexandria,Egypt,ALY,31.183900833129886,29.94890022277832
1127,Abu Simbel Airport,Abu Simbel,Egypt,ABS,22.3759994507,31.611700058
1128,Cairo International Airport,Cairo,Egypt,CAI,30.12190055847168,31.40559959411621
1129,Cairo West Airport,Cairo,Egypt,CWE,30.116399765,30.9153995514
1130,Hurghada International Airport,Hurghada,Egypt,HRG,27.178300857543945,33.799400329589844
1131,El Gora Airport,El Gorah,Egypt,EGH,31.068559000000004,34.129629
1132,Luxor International Airport,Luxor,Egypt,LXR,25.671,32.7066
1133,Mersa Matruh Airport,Mersa-matruh,Egypt,MUH,31.325399398800002,27.2217006683
1134,Port Said Airport,Port Said,Egypt,PSD,31.279399871826172,32.240001678466804
1135,St Catherine International Airport,St. Catherine,Egypt,SKV,28.685300827,34.0625
1136,Aswan International Airport,Aswan,Egypt,ASW,23.964399337800003,32.8199996948
1137,El Tor Airport,El-tor,Egypt,ELT,28.208999633789066,33.64550018310547
1138,Eldoret International Airport,Eldoret,Kenya,EDL,0.4044579863548279,35.23889923095703
1139,Kakamega Airport,Kakamega,Kenya,GGM,0.271342009306,34.787300109899995
1140,Kisumu Airport,Kisumu,Kenya,KIS,-0.0861390009522438,34.72890090942383
1141,Kitale Airport,Kitale,Kenya,KTL,0.9719889760017396,34.95859909057617
1143,Lodwar Airport,Lodwar,Kenya,LOK,3.1219699382781982,35.608699798583984
1144,Manda Airstrip,Lamu,Kenya,LAU,-2.252419948577881,40.91310119628906
1145,Mombasa Moi International Airport,Mombasa,Kenya,MBA,-4.034830093383788,39.594200134277344
1146,Naivasha Airport,Naivasha,Kenya,\N,-0.787953,36.433494
1147,Nairobi Wilson Airport,Nairobi,Kenya,WIL,-1.3217200040817259,36.81480026245117
1148,Moi Air Base,Nairobi,Kenya,\N,-1.27726995945,36.8623008728
1149,Wajir Airport,Wajir,Kenya,WJR,1.7332400000000001,40.091599
1150,Bu Attifel Airport,Buattifel,Libya,\N,28.79540061950684,22.080900192260746
1151,Warehouse 59e Airport,Giallo,Libya,\N,28.63850021362305,21.4379997253418
1152,Ghat Airport,Ghat,Libya,GHT,25.1455993652,10.142600059500001
1153,Kufra Airport,Kufra,Libya,AKF,24.178699493408203,23.31399917602539
1154,Benina International Airport,Benghazi,Libya,BEN,32.096801757799994,20.2695007324
1156,Sabha Airport,Sebha,Libya,SEB,26.98699951171875,14.47249984741211
1157,Tripoli International Airport,Tripoli,Libya,TIP,32.6635017395,13.159000396700002
1158,Marsa Brega Airport,Marsa Brega,Libya,LMQ,30.37809944152832,19.576400756835934
1159,Ras Lanuf Oil Airport,Ras Lanouf V 40,Libya,\N,30.5,18.52720069885254
1160,Hon Airport,Hon,Libya,HUQ,29.11009979248047,15.96560001373291
1161,Dahra Airport,Dahra,Libya,\N,29.47260093688965,17.934900283813477
1162,Ghadames East Airport,Ghadames,Libya,LTD,30.15169906616211,9.715310096740724
1163,Zella 74 Airport,Zella 74,Libya,\N,28.58989906311035,17.293899536132812
1164,Gisenyi Airport,Gisenyi,Rwanda,GYI,-1.6771999597549438,29.258899688720703
1165,Kigali International Airport,Kigali,Rwanda,KGL,-1.9686299999999999,30.1395
1166,Kamembe Airport,Kamembe,Rwanda,KME,-2.462239980697632,28.907899856567386
1167,Dongola Airport,Dongola,Sudan,DOG,19.1539001465,30.4300994873
1168,Damazin Airport,Damazin,Sudan,RSS,11.7859,34.3367
1169,El Fasher Airport,El Fasher,Sudan,ELF,13.61489963531494,25.32460021972656
1170,Kassala Airport,Kassala,Sudan,KSL,15.387499809265135,36.328800201416016
1171,Kadugli Airport,Kadugli,Sudan,KDX,11.137999534600002,29.7010993958
1172,El Obeid Airport,El Obeid,Sudan,EBD,13.153200149536133,30.23270034790039
1173,Juba International Airport,Juba,South Sudan,JUB,4.87201023102,31.601100921599997
1174,Malakal Airport,Malakal,Sudan,MAK,9.55897045135498,31.65220069885254
1175,Khartoum International Airport,Khartoum,Sudan,KRT,15.589500427246096,32.55319976806641
1176,Arusha Airport,Arusha,Tanzania,ARK,-3.3677899837493896,36.63330078125
1177,Julius Nyerere International Airport,Dar Es Salaam,Tanzania,DAR,-6.87811,39.202599
1178,Dodoma Airport,Dodoma,Tanzania,DOD,-6.170440196990968,35.752601623535156
1179,Iringa Airport,Iringa,Tanzania,IRI,-7.668630123138428,35.75210189819336
1180,Kilimanjaro International Airport,Kilimanjaro,Tanzania,JRO,-3.42940998077,37.0745010376
1181,Lake Manyara Airport,Lake Manyara,Tanzania,LKY,-3.376310110092163,35.81829833984375
1182,Mtwara Airport,Mtwara,Tanzania,MYW,-10.339099884033203,40.181800842285156
1183,Mwanza Airport,Mwanza,Tanzania,MWZ,-2.4444899559021,32.932701110839844
1184,Pemba Airport,Pemba,Tanzania,PMA,-5.2572598457336435,39.8114013671875
1185,Tanga Airport,Tanga,Tanzania,TGT,-5.092360019683838,39.07120132446289
1186,Abeid Amani Karume International Airport,Zanzibar,Tanzania,ZNZ,-6.22202,39.224899
1187,Entebbe International Airport,Entebbe,Uganda,EBB,0.042386,32.443501
1189,Soroti Airport,Soroti,Uganda,SRT,1.7276899814605713,33.62279891967773
1190,Tirana International Airport Mother Teresa,Tirana,Albania,TIA,41.4146995544,19.7206001282
1191,Burgas Airport,Bourgas,Bulgaria,BOJ,42.56959915161133,27.515199661254886
1192,Gorna Oryahovitsa Airport,Gorna Orechovica,Bulgaria,GOZ,43.15140151977539,25.712900161743164
1193,Plovdiv International Airport,Plovdiv,Bulgaria,PDV,42.067799,24.8508
1194,Sofia Airport,Sofia,Bulgaria,SOF,42.696693420410156,23.411436080932614
1195,Stara Zagora Airport,Stara Zagora,Bulgaria,SZR,42.3766667,25.655
1196,Varna Airport,Varna,Bulgaria,VAR,43.232101,27.8251
1197,Larnaca International Airport,Larnaca,Cyprus,LCA,34.875099182128906,33.62490081787109
1198,Paphos International Airport,Paphos,Cyprus,PFO,34.71799850463867,32.48569869995117
1199,RAF Akrotiri,Akrotiri,Cyprus,AKT,34.590401,32.9879
1200,Dubrovnik Airport,Dubrovnik,Croatia,DBV,42.5614013671875,18.268199920654297
1201,Osijek-Čepin Airfield,Cepin,Croatia,\N,45.542777799999996,18.6319444
1202,Osijek Airport,Osijek,Croatia,OSI,45.46269989013672,18.810199737548828
1203,Pula Airport,Pula,Croatia,PUY,44.89350128173828,13.922200202941895
1204,Grobnicko Polje Airport,Grobnik,Croatia,\N,45.37950134277344,14.50380039215088
1205,Rijeka Airport,Rijeka,Croatia,RJK,45.21689987182617,14.570300102233887
1206,Split Airport,Split,Croatia,SPU,43.53889846801758,16.29800033569336
1207,Varaždin Airport,Varazdin,Croatia,\N,46.29464721679688,16.382932662963867
1208,Zagreb Airport,Zagreb,Croatia,ZAG,45.742900848400005,16.0687999725
1209,Zadar Airport,Zadar,Croatia,ZAD,44.108299,15.3467
1210,Udbina Air Base,Udbina,Croatia,\N,44.55759811401367,15.774399757385256
1211,Albacete-Los Llanos Airport,Albacete,Spain,ABC,38.9485015869,-1.86352002621
1212,Alicante International Airport,Alicante,Spain,ALC,38.28219985961914,-0.5581560134887695
1213,Almería International Airport,Almeria,Spain,LEI,36.84389877319336,-2.3701000213623047
1214,Asturias Airport,Aviles,Spain,OVD,43.5635986328125,-6.0346198081970215
1215,Córdoba Airport,Cordoba,Spain,ODB,37.84199905395508,-4.848879814147949
1216,Bilbao Airport,Bilbao,Spain,BIO,43.30110168457031,-2.9106099605560303
1218,Barcelona International Airport,Barcelona,Spain,BCN,41.2971,2.0784599999999998
1219,Badajoz Airport,Badajoz,Spain,BJZ,38.891300201416016,-6.8213300704956055
1220,A Coruña Airport,La Coruna,Spain,LCG,43.302101,-8.37726
1221,Armilla Air Base,Granada,Spain,\N,37.1332016,-3.63568997
1222,Girona Airport,Gerona,Spain,GRO,41.901000976999995,2.7605500221
1223,Federico Garcia Lorca Airport,Granada,Spain,GRX,37.18870162963867,-3.777359962463379
1224,Getafe Air Base,Madrid,Spain,\N,40.29410171508789,-3.723829984664917
1225,Ibiza Airport,Ibiza,Spain,IBZ,38.8728981018,1.3731199502899998
1226,Jerez Airport,Jerez,Spain,XRY,36.74459838867188,-6.060110092163086
1227,San Javier Airport,Murcia,Spain,MJV,37.775001525878906,-0.8123890161514282
1229,Adolfo Suárez Madrid–Barajas Airport,Madrid,Spain,MAD,40.471926,-3.56264
1230,Málaga Airport,Malaga,Spain,AGP,36.67490005493164,-4.499110221862793
1231,Menorca Airport,Menorca,Spain,MAH,39.86259841918945,4.2186498641967765
1232,Moron Air Base,Sevilla,Spain,OZP,37.17490005493164,-5.6159400939941415
1233,Ocaña Airport,Ocana,Spain,\N,39.9375,-3.5033299922943115
1234,Pamplona Airport,Pamplona,Spain,PNA,42.77000045776367,-1.6463299989700315
1235,Alcantarilla Air Base,Murcia,Spain,\N,37.951099,-1.23032
1236,Reus Air Base,Reus,Spain,REU,41.14739990234375,1.1671700477600098
1237,Rota Naval Station Airport,Rota,Spain,ROZ,36.645198822,-6.34946012497
1238,Salamanca Airport,Salamanca,Spain,SLM,40.95209884643555,-5.501989841461182
1239,Son Bonet Airport,Son Bonet,Spain,\N,39.598899841308594,2.70278000831604
1241,San Luis Airport,San Luis,Spain,\N,39.86220169067383,4.2583298683166495
1242,San Sebastian Airport,San Sebastian,Spain,EAS,43.35649871826172,-1.7906099557876587
1243,Santiago de Compostela Airport,Santiago,Spain,SCQ,42.89630126953125,-8.415140151977539
1244,Pirineus - la Seu d'Urgel Airport,Seo De Urgel,Spain,LEU,42.3386,1.40917
1245,Torrejón Airport,Madrid,Spain,TOJ,40.49670028686523,-3.4458699226379395
1246,Valencia Airport,Valencia,Spain,VLC,39.4893,-0.481625
1247,Valladolid Airport,Valladolid,Spain,VLL,41.7061004639,-4.85194015503
1249,Vitoria/Foronda Airport,Vitoria,Spain,VIT,42.8828010559082,-2.7244699001312256
1250,Vigo Airport,Vigo,Spain,VGO,42.2318000793457,-8.62677001953125
1251,Santander Airport,Santander,Spain,SDR,43.427101135253906,-3.82000994682312
1252,Zaragoza Air Base,Zaragoza,Spain,ZAZ,41.66619873046875,-1.0415500402450562
1253,Sevilla Airport,Sevilla,Spain,SVQ,37.41799926757813,-5.8931097984313965
1254,Calais-Dunkerque Airport,Calais,France,CQF,50.96210098266602,1.954759955406189
1255,Péronne-Saint-Quentin Airport,Peronne,France,\N,49.8685,3.0295799999999997
1256,Nangis-Les Loges Airport,Nangis,France,\N,48.59619903564453,3.0067899227142334
1257,Bagnoles-de-l'Orne-Couterne Airport,Bagnole-de-l'orne,France,\N,48.545799255371094,-0.38744398951530457
1258,Albert-Bray Airport,Albert,France,BYF,49.9715003967,2.6976599693299996
1259,Le Touquet-Côte d'Opale Airport,Le Tourquet,France,LTQ,50.51739883422852,1.6205899715423584
1260,Valenciennes-Denain Airport,Valenciennes,France,XVS,50.32580184936523,3.4612600803375244
1261,Amiens-Glisy Airport,Amiens,France,\N,49.873003999999995,2.387074
1262,Agen-La Garenne Airport,Agen,France,AGF,44.17470169067383,0.5905560255050659
1263,Cazaux (BA 120) Air Base,Cazaux,France,\N,44.53329849243164,-1.125
1264,Bordeaux-Mérignac Airport,Bordeaux,France,BOD,44.8283004761,-0.7155560255050001
1265,Bergerac-Roumanière Airport,Bergerac,France,EGC,44.82529830932617,0.5186110138893127
1266,Toulouse-Francazal (BA 101) Air Base,Toulouse,France,\N,43.54560089111328,1.3674999475479126
1267,Cognac-Châteaubernard (BA 709) Air Base,Cognac,France,CNG,45.65829849243164,-0.3174999952316284
1268,Poitiers-Biard Airport,Poitiers,France,PIS,46.58769989013672,0.30666598677635193
1269,Montluçon-Guéret Airport,Montlucon-gueret,France,MCU,46.22259902954102,2.3639600276947017
1270,Limoges Airport,Limoges,France,LIG,45.86280059814453,1.1794400215148926
1271,Mont-de-Marsan (BA 118) Air Base,Mont-de-marsan,France,\N,43.911701,-0.5075
1272,Niort-Souché Airport,Niort,France,NIT,46.313477,-0.394529
1273,Toulouse-Blagnac Airport,Toulouse,France,TLS,43.629101,1.36382
1274,Pau Pyrénées Airport,Pau,France,PUF,43.38000106811523,-0.4186109900474548
1275,Muret-Lherm Airport,La Rochelle,France,\N,43.44889831542969,1.2633299827575684
1276,Tarbes-Lourdes-Pyrénées Airport,Tarbes,France,LDE,43.1786994934082,-0.006438999902456999
1277,Angoulême-Brie-Champniers Airport,Angouleme,France,ANG,45.72919845581055,0.22145600616931915
1278,Brive Souillac Airport,Brive,France,BVE,45.039722,1.4855559999999999
1279,Périgueux-Bassillac Airport,Perigueux,France,PGX,45.19810104370117,0.815555989742279
1280,Biarritz-Anglet-Bayonne Airport,Biarritz-bayonne,France,BIQ,43.4683333,-1.5311111000000002
