ID,Name,City,Country,IATA,Lat,Long
3411,Barter Island LRRS Airport,Barter Island,United States,BTI,70.13400268550001,-143.582000732
3413,Cape Lisburne LRRS Airport,Cape Lisburne,United States,LUR,68.87509918,-166.1100006
3414,Point Lay LRRS Airport,Point Lay,United States,PIZ,69.73290253,-163.00500490000005
3415,Hilo International Airport,Hilo,United States,ITO,19.721399307250977,-155.04800415039062
3416,Orlando Executive Airport,Orlando,United States,ORL,28.5455,-81.332901
3417,Bettles Airport,Bettles,United States,BTT,66.91390228,-151.529007
3419,Indian Mountain LRRS Airport,Indian Mountains,United States,UTO,65.99279785,-153.7039948
3420,Fort Yukon Airport,Fort Yukon,United States,FYU,66.57150268554689,-145.25
3421,Sparrevohn LRRS Airport,Sparrevohn,United States,SVW,61.09740067,-155.5740051
3422,Bryant Army Heliport,Fort Richardson,United States,FRN,61.26639938,-149.6529999
3423,Tatalina LRRS Airport,Tatalina,United States,TLJ,62.894401550299996,-155.977005005
3424,Cape Romanzof LRRS Airport,Cape Romanzof,United States,CZF,61.78030014,-166.03900149999996
3425,Laurence G Hanscom Field,Bedford,United States,BED,42.47000122,-71.28900146
3426,St Paul Island Airport,St. Paul Island,United States,SNP,57.16730117797852,-170.22000122070312
3427,Cape Newenham LRRS Airport,Cape Newenham,United States,EHM,58.6464004517,-162.06300354
3428,St George Airport,Point Barrow,United States,STG,56.5783004761,-169.662002563
3429,Iliamna Airport,Iliamna,United States,ILI,59.75439835,-154.9109955
3430,Platinum Airport,Port Moller,United States,PTU,59.01139831542969,-161.82000732421875
3431,Big Mountain Airport,Big Mountain,United States,BMX,59.361198425299996,-155.259002686
3432,Oscoda Wurtsmith Airport,Oscoda,United States,OSC,44.451599,-83.39409599999998
3433,Marina Municipal Airport,Fort Ord,United States,OAR,36.68190002,-121.762001
3434,Sacramento Mather Airport,Sacramento,United States,MHR,38.55390167,-121.2979965
3435,Bicycle Lake Army Air Field,Fort Irwin,United States,BYS,35.2804985046,-116.629997253
3437,Fort Smith Regional Airport,Fort Smith,United States,FSM,35.33660125732422,-94.36740112304688
3438,Merrill Field,Anchorage,United States,MRI,61.2135009765625,-149.843994140625
3439,Grants-Milan Municipal Airport,Grants,United States,GNT,35.167301178,-107.902000427
3440,Ponca City Regional Airport,Ponca City,United States,PNC,36.73199844,-97.09980011
3441,Hunter Army Air Field,Hunter Aaf,United States,SVN,32.00999832,-81.14569855
3442,Grand Forks International Airport,Grand Forks,United States,GFK,47.949299,-97.176102
3443,"Pine Bluff Regional Airport, Grider Field",Pine Bluff,United States,PBF,34.1731,-91.9356
3444,Whiting Field Naval Air Station - North,Milton,United States,NSE,30.7241993,-87.02189636
3445,Hana Airport,Hana,United States,HNM,20.79560089111328,-156.01400756835938
3446,Ernest A. Love Field,Prescott,United States,PRC,34.65449905,-112.4199982
3447,Trenton Mercer Airport,Trenton,United States,TTN,40.27669906616211,-74.8134994506836
3448,General Edward Lawrence Logan International Airport,Boston,United States,BOS,42.36429977,-71.00520325
3449,Travis Air Force Base,Fairfield,United States,SUU,38.262699127196996,-121.92700195312
3450,Griffiss International Airport,Rome,United States,RME,43.23379898,-75.40699768
3451,Wendover Airport,Wendover,United States,ENV,40.7187004089,-114.03099823
3452,Mobile Downtown Airport,Mobile,United States,BFM,30.62680053710001,-88.06809997559998
3453,Metropolitan Oakland International Airport,Oakland,United States,OAK,37.721298,-122.221001
3454,Eppley Airfield,Omaha,United States,OMA,41.3032,-95.894096
3456,Kahului Airport,Kahului,United States,OGG,20.8986,-156.429993
3457,Wichita Eisenhower National Airport,Wichita,United States,ICT,37.649899,-97.433098
3458,Kansas City International Airport,Kansas City,United States,MCI,39.2976,-94.713898
3459,Dane County Regional Truax Field,Madison,United States,MSN,43.13990020751953,-89.3375015258789
3460,Dillingham Airport,Dillingham,United States,DLG,59.04470062,-158.50500490000005
3461,Boone County Airport,Harrison,United States,HRO,36.26150131225586,-93.15470123291016
3462,Phoenix Sky Harbor International Airport,Phoenix,United States,PHX,33.43429946899414,-112.01200103759766
3463,Bangor International Airport,Bangor,United States,BGR,44.80739974975586,-68.82810211181639
3464,Fort Lauderdale Executive Airport,Fort Lauderdale,United States,FXE,26.1972999573,-80.1707000732
3465,East Texas Regional Airport,Longview,United States,GGG,32.38399887084961,-94.71150207519531
3466,Anderson Regional Airport,Andersen,United States,AND,34.4945983887,-82.70939636230001
3467,Spokane International Airport,Spokane,United States,GEG,47.61989974975586,-117.53399658203124
3468,North Perry Airport,Hollywood,United States,HWO,26.0012,-80.2407
3469,San Francisco International Airport,San Francisco,United States,SFO,37.61899948120117,-122.375
3470,Cut Bank International Airport,Cutbank,United States,CTB,48.6083984375,-112.375999451
3471,Acadiana Regional Airport,Louisiana,United States,ARA,30.0378,-91.883904
3472,Gainesville Regional Airport,Gainesville,United States,GNV,29.6900997162,-82.27179718020001
3473,Memphis International Airport,Memphis,United States,MEM,35.04240036010742,-89.97669982910156
3474,Bisbee Douglas International Airport,Douglas,United States,DUG,31.4689998627,-109.60399627700001
3475,Allen Army Airfield,Delta Junction,United States,BIG,63.994499206499995,-145.722000122
3476,TSTC Waco Airport,Waco,United States,CNW,31.6378002167,-97.07409667969999
3477,Annette Island Airport,Annette Island,United States,ANN,55.04240036010742,-131.57200622558594
3478,Caribou Municipal Airport,Caribou,United States,CAR,46.8714981079,-68.0178985596
3479,Little Rock Air Force Base,Jacksonville,United States,LRF,34.916900634799994,-92.14969635010002
3480,Redstone Army Air Field,Redstone,United States,HUA,34.67869949,-86.68479919
3481,Pope Field,Fort Bragg,United States,POB,35.1708984375,-79.014503479004
3482,Dalhart Municipal Airport,Dalhart,United States,DHT,36.0225982666,-102.54699707
3483,DLF Airport,Del Rio,United States,DLF,29.359501,-100.778002
3484,Los Angeles International Airport,Los Angeles,United States,LAX,33.94250107,-118.4079971
3485,Anniston Regional Airport,Anniston,United States,ANB,33.5882,-85.8581
3486,Cleveland Hopkins International Airport,Cleveland,United States,CLE,41.411701202399996,-81.8498001099
3487,Dover Air Force Base,Dover,United States,DOV,39.12950134,-75.46600342
3488,Cincinnati Northern Kentucky International Airport,Cincinnati,United States,CVG,39.0488014221,-84.6678009033
3489,Tipton Airport,Fort Meade,United States,FME,39.08539962769999,-76.7593994141
3491,Huron Regional Airport,Huron,United States,HON,44.38520050048828,-98.22850036621094
3492,Juneau International Airport,Juneau,United States,JNU,58.35499954223633,-134.57600402832028
3493,Lafayette Regional Airport,Lafayette,United States,LFT,30.20529938,-91.98760223
3494,Newark Liberty International Airport,Newark,United States,EWR,40.69250106811523,-74.168701171875
3495,Boise Air Terminal/Gowen Field,Boise,United States,BOI,43.5644,-116.223
3496,Creech Air Force Base,Indian Springs,United States,INS,36.5872001648,-115.672996521
3497,Garden City Regional Airport,Garden City,United States,GCK,37.9275016785,-100.72399902299999
3498,Minot International Airport,Minot,United States,MOT,48.2593994140625,-101.27999877929688
3499,Wheeler Army Airfield,Wahiawa,United States,HHI,21.48349953,-158.03999330000005
3500,Maxwell Air Force Base,Montgomery,United States,MXF,32.3829,-86.365799
3502,Dallas Love Field,Dallas,United States,DAL,32.847099,-96.851799
3503,Butts AAF (Fort Carson) Air Field,Fort Carson,United States,FCS,38.67839813,-104.7570038
3504,Helena Regional Airport,Helena,United States,HLN,46.6068000793457,-111.98300170898438
3505,Miramar Marine Corps Air Station - Mitscher Field,Miramar,United States,NKX,32.86840057,-117.1429977
3506,Luke Air Force Base,Phoenix,United States,LUF,33.534999847399995,-112.383003235
3508,Jack Northrop Field Hawthorne Municipal Airport,Hawthorne,United States,HHR,33.922798,-118.334999
3509,Houlton International Airport,Houlton,United States,HUL,46.123100280799996,-67.79209899899999
3510,Vance Air Force Base,Enid,United States,END,36.339199066199996,-97.9164962769
3511,Point Mugu Naval Air Station (Naval Base Ventura Co),Point Mugu,United States,NTD,34.120300293,-119.12100219700001
3512,Edwards Air Force Base,Edwards Afb,United States,EDW,34.905399,-117.884003
3513,Lake Charles Regional Airport,Lake Charles,United States,LCH,30.12610054016113,-93.22329711914062
3514,Ellison Onizuka Kona International At Keahole Airport,Kona,United States,KOA,19.738783,-156.045603
3515,Myrtle Beach International Airport,Myrtle Beach,United States,MYR,33.6796989441,-78.9282989502
3516,Lemoore Naval Air Station (Reeves Field) Airport,Lemoore,United States,NLC,36.33300018,-119.9520035
3517,Nantucket Memorial Airport,Nantucket,United States,ACK,41.25310135,-70.06020355
3518,Felker Army Air Field,Fort Eustis,United States,FAF,37.1324996948,-76.60880279540002
3519,Campbell AAF (Fort Campbell) Air Field,Hopkinsville,United States,HOP,36.668598175,-87.49620056150002
3520,Ronald Reagan Washington National Airport,Washington,United States,DCA,38.8521,-77.037697
3521,Patuxent River Naval Air Station (Trapnell Field),Patuxent River,United States,NHK,38.285999,-76.41179699999998
3522,Palacios Municipal Airport,Palacios,United States,PSX,28.727500915527,-96.25099945068399
3523,Arkansas International Airport,Blytheville,United States,BYH,35.9642982483,-89.94400024410002
3524,Atlantic City International Airport,Atlantic City,United States,ACY,39.45759963989258,-74.57720184326172
3525,Tinker Air Force Base,Oklahoma City,United States,TIK,35.414699554443004,-97.386596679688
3526,Elizabeth City Regional Airport & Coast Guard Air Station,Elizabeth City,United States,ECG,36.26060104,-76.17459869
3527,Pueblo Memorial Airport,Pueblo,United States,PUB,38.289100646972656,-104.49700164794922
3528,Northern Maine Regional Airport at Presque Isle,Presque Isle,United States,PQI,46.68899918,-68.0447998
3530,Gray Army Air Field,Fort Lewis,United States,GRF,47.07920074,-122.5810013
3531,Kodiak Airport,Kodiak,United States,ADQ,57.75,-152.4940033
3532,Upolu Airport,Opolu,United States,UPP,20.265300750732425,-155.86000061035156
3533,Fort Lauderdale Hollywood International Airport,Fort Lauderdale,United States,FLL,26.072599,-80.152702
3535,Falls International Airport,International Falls,United States,INL,48.566200256347656,-93.4030990600586
3536,Salt Lake City International Airport,Salt Lake City,United States,SLC,40.78839874267578,-111.97799682617188
3537,Childress Municipal Airport,Childress,United States,CDS,34.4337997437,-100.288002014
3538,Keesler Air Force Base,Biloxi,United States,BIX,30.4104003906,-88.92440032959999
3539,Lawson Army Air Field (Fort Benning),Fort Benning,United States,LSF,32.337299346900004,-84.9913024902
3540,Kingsville Naval Air Station,Kingsville,United States,NQI,27.5072002411,-97.8097000122
3541,Marshall Army Air Field,Fort Riley,United States,FRI,39.05530167,-96.76450348
3542,Harrisburg International Airport,Harrisburg,United States,MDT,40.1935005188,-76.7633972168
3543,Lincoln Airport,Lincoln,United States,LNK,40.85100173950195,-96.75920104980469
3544,Capital City Airport,Lansing,United States,LAN,42.77870178222656,-84.58740234375
3545,Waimea Kohala Airport,Kamuela,United States,MUE,20.001300811767575,-155.66799926757812
3546,Massena International Richards Field,Massena,United States,MSS,44.93579864501953,-74.84559631347656
3547,Hickory Regional Airport,Hickory,United States,HKY,35.74110031,-81.38950348
3548,Albert Whitted Airport,St. Petersburg,United States,SPG,27.7651,-82.626999
3549,Page Field,Fort Myers,United States,FMY,26.58659935,-81.86329650879998
3550,George Bush Intercontinental Houston Airport,Houston,United States,IAH,29.98439979553223,-95.34140014648438
3552,Joint Base Andrews,Camp Springs,United States,ADW,38.810799,-76.866997
3553,Smith Reynolds Airport,Winston-salem,United States,INT,36.13370132446289,-80.22200012207031
3554,Southern California Logistics Airport,Victorville,United States,VCV,34.597499847399995,-117.383003235
3555,Bob Sikes Airport,Crestview,United States,CEW,30.778799056999997,-86.522102356
3557,St Clair County International Airport,Port Huron,United States,PHN,42.91099929999999,-82.52890015
3558,Meadows Field,Bakersfield,United States,BFL,35.43360138,-119.0569992
3559,El Paso International Airport,El Paso,United States,ELP,31.80719948,-106.37799840000002
3560,Valley International Airport,Harlingen,United States,HRL,26.228500366210927,-97.65440368652344
3561,Columbia Metropolitan Airport,Columbia,United States,CAE,33.93880081176758,-81.11949920654297
3562,Davis Monthan Air Force Base,Tucson,United States,DMA,32.1665000916,-110.883003235
3563,Pensacola Naval Air Station/Forrest Sherman Field,Pensacola,United States,NPA,30.35269928,-87.31860352
3564,Pensacola Regional Airport,Pensacola,United States,PNS,30.473400115967003,-87.18659973144501
3565,Grand Forks Air Force Base,Red River,United States,RDR,47.961101532,-97.4011993408
3566,William P Hobby Airport,Houston,United States,HOU,29.64539909,-95.27890015
3567,Buckley Air Force Base,Buckley,United States,BFK,39.701698303200004,-104.75199890100001
3568,Northway Airport,Northway,United States,ORT,62.96129989999999,-141.9290009
3569,"Warren ""Bud"" Woods Palmer Municipal Airport",Palmer,United States,PAQ,61.594898,-149.08901
3570,Pittsburgh International Airport,Pittsburgh,United States,PIT,40.49150085,-80.23290253
3571,Wiley Post Will Rogers Memorial Airport,Barrow,United States,BRW,71.285402,-156.766008
3572,Ellington Airport,Houston,United States,EFD,29.6072998047,-95.15879821780001
3573,Whidbey Island Naval Air Station (Ault Field),Whidbey Island,United States,NUW,48.351799,-122.655998
3574,Alice International Airport,Alice,United States,ALI,27.740900039699998,-98.02690124510002
3575,Moody Air Force Base,Valdosta,United States,VAD,30.967800140399998,-83.1930007935
3576,Miami International Airport,Miami,United States,MIA,25.79319953918457,-80.29060363769531
3577,Seattle Tacoma International Airport,Seattle,United States,SEA,47.449001,-122.308998
3578,Lovell Field,Chattanooga,United States,CHA,35.03530120849609,-85.20379638671875
3579,Igor I Sikorsky Memorial Airport,Stratford,United States,BDR,41.16350173950195,-73.1261978149414
3580,Jackson-Medgar Wiley Evers International Airport,Jackson,United States,JAN,32.3111991882,-90.0758972168
3581,Scholes International At Galveston Airport,Galveston,United States,GLS,29.265300750732425,-94.8603973388672
3582,Long Beach /Daugherty Field/ Airport,Long Beach,United States,LGB,33.81769943,-118.1520004
3583,Dillingham Airfield,Dillingham,United States,HDH,21.5795001984,-158.197006226
3584,Williamsport Regional Airport,Williamsport,United States,IPT,41.241798400878906,-76.92109680175781
3585,Indianapolis International Airport,Indianapolis,United States,IND,39.7173,-86.294403
3586,Whiteman Air Force Base,Knobnoster,United States,SZL,38.73030090332,-93.547897338867
3587,Akron Fulton International Airport,Akron,United States,AKC,41.0374984741,-81.46690368649999
3588,Greenwood–Leflore Airport,Greenwood,United States,GWO,33.4943008423,-90.08470153809999
3589,Westchester County Airport,White Plains,United States,HPN,41.06700134277344,-73.70760345458984
3590,Francis S Gabreski Airport,West Hampton Beach,United States,FOK,40.8437004089,-72.6317977905
3591,Jonesboro Municipal Airport,Jonesboro,United States,JBR,35.83169937133789,-90.64640045166016
3592,Tonopah Test Range Airport,Tonopah,United States,XSD,37.7988014221,-116.78099823
3593,Palm Beach County Park Airport,West Palm Beach,United States,LNA,26.59300041,-80.08509827
3594,North Island Naval Air Station-Halsey Field,San Diego,United States,NZY,32.69919968,-117.2149963
3595,Biggs Army Air Field (Fort Bliss),El Paso,United States,BIF,31.84950066,-106.3799973
3596,Yuma MCAS/Yuma International Airport,Yuma,United States,YUM,32.65660095,-114.6060028
3597,Cavern City Air Terminal,Carlsbad,United States,CNM,32.337501525878906,-104.26300048828124
3598,Duluth International Airport,Duluth,United States,DLH,46.8420982361,-92.19360351559999
3599,Bethel Airport,Bethel,United States,BET,60.77980042,-161.8379974
3600,Bowman Field,Louisville,United States,LOU,38.2280006409,-85.6636962891
3601,Sierra Vista Municipal Libby Army Air Field,Fort Huachuca,United States,FHU,31.58849906921387,-110.34400177001952
3602,Lihue Airport,Lihue,United States,LIH,21.97599983215332,-159.33900451660156
3603,"Terre Haute Regional Airport, Hulman Field",Terre Haute,United States,HUF,39.4515,-87.307602
3604,Havre City County Airport,Havre,United States,HVR,48.54299927,-109.762001
3605,Grant County International Airport,Grant County Airport,United States,MWH,47.20769882,-119.3199997
3606,Edward F Knapp State Airport,Montpelier,United States,MPV,44.20349884,-72.56230164
3608,Richmond International Airport,Richmond,United States,RIC,37.50519943237305,-77.3197021484375
3609,Shreveport Regional Airport,Shreveport,United States,SHV,32.446602,-93.8256
3610,Merle K (Mudhole) Smith Airport,Cordova,United States,CDV,60.49179839999999,-145.4779968
3611,Norfolk International Airport,Norfolk,United States,ORF,36.89459991455078,-76.20120239257812
3612,Southeast Texas Regional Airport,Beaumont,United States,BPT,29.9507999420166,-94.02069854736328
3613,Savannah Hilton Head International Airport,Savannah,United States,SAV,32.12760162,-81.20210266
3614,Hill Air Force Base,Ogden,United States,HIF,41.12403,-111.973086
3615,Nome Airport,Nome,United States,OME,64.51219940185547,-165.44500732421875
3617,St Petersburg Clearwater International Airport,St. Petersburg,United States,PIE,27.91020012,-82.68740082
3618,Menominee Regional Airport,Macon,United States,MNM,45.126701,-87.638397
3619,Conroe-North Houston Regional Airport,Conroe,United States,CXO,30.351801,-95.414497
3620,Deadhorse Airport,Deadhorse,United States,SCC,70.19470215,-148.46499630000002
3621,San Antonio International Airport,San Antonio,United States,SAT,29.533700942993164,-98.46980285644531
3622,Greater Rochester International Airport,Rochester,United States,ROC,43.118900299072266,-77.67240142822266
3623,Patrick Air Force Base,Coco Beach,United States,COF,28.2348995209,-80.6100997925
3624,Teterboro Airport,Teterboro,United States,TEB,40.85010147089999,-74.060798645
3625,Ellsworth Air Force Base,Rapid City,United States,RCA,44.14500046,-103.1039963
3626,Raleigh Durham International Airport,Raleigh-durham,United States,RDU,35.877601623535156,-78.7874984741211
3627,James M Cox Dayton International Airport,Dayton,United States,DAY,39.90240097045898,-84.21939849853516
3628,Kenai Municipal Airport,Kenai,United States,ENA,60.57310104370117,-151.2449951171875
3629,Mc Alester Regional Airport,Mcalester,United States,MLC,34.882401,-95.783501
3630,Niagara Falls International Airport,Niagara Falls,United States,IAG,43.1072998046875,-78.94619750976562
3631,Coulter Field,Bryan,United States,CFD,30.715700149499998,-96.3313980103
3632,Wright AAF (Fort Stewart)/Midcoast Regional Airport,Wright,United States,LIY,31.889099,-81.562303
3633,Newport News Williamsburg International Airport,Newport News,United States,PHF,37.13190079,-76.49299622
3634,Esler Regional Airport,Alexandria,United States,ESF,31.3948993683,-92.29579925540001
3635,Altus Air Force Base,Altus,United States,LTS,34.667098999000004,-99.26670074459999
3636,Tucson International Airport,Tucson,United States,TUS,32.116100311279304,-110.94100189208984
3637,Minot Air Force Base,Minot,United States,MIB,48.4156,-101.358002
3638,Beale Air Force Base,Marysville,United States,BAB,39.136100769,-121.43699646
3639,Greater Kankakee Airport,Kankakee,United States,IKK,41.07139968869999,-87.84629821780001
3640,Seymour Johnson Air Force Base,Goldsboro,United States,GSB,35.33940125,-77.96060181
3641,Theodore Francis Green State Airport,Providence,United States,PVD,41.732601,-71.42040300000002
3642,Salisbury Ocean City Wicomico Regional Airport,Salisbury,United States,SBY,38.34049987792969,-75.51029968261719
3644,Bob Hope Airport,Burbank,United States,BUR,34.200698852539055,-118.35900115966795
3645,Detroit Metropolitan Wayne County Airport,Detroit,United States,DTW,42.212398529052734,-83.35340118408203
3646,Tampa International Airport,Tampa,United States,TPA,27.975500106811523,-82.533203125
3647,Pembina Municipal Airport,Pembina,United States,PMB,48.94250106810001,-97.2407989502
3648,Polk Army Air Field,Fort Polk,United States,POE,31.044799800000003,-93.1917038
3649,Eielson Air Force Base,Fairbanks,United States,EIL,64.66570282,-147.102005
3650,Range Regional Airport,Hibbing,United States,HIB,47.38660049,-92.83899689
3651,Angelina County Airport,Lufkin,United States,LFK,31.2339992523,-94.75
3652,Midland International Airport,Midland,United States,MAF,31.9424991607666,-102.2020034790039
3653,Austin Straubel International Airport,Green Bay,United States,GRB,44.48509979248047,-88.12960052490234
3654,Ardmore Municipal Airport,Ardmore,United States,ADM,34.30301,-97.0196342
3655,Mc Guire Air Force Base,Wrightstown,United States,WRI,40.01559829999999,-74.59169769
3658,Augusta Regional At Bush Field,Bush Field,United States,AGS,33.36989974975586,-81.9645004272461
3659,Sloulin Field International Airport,Williston,United States,ISN,48.177898407,-103.64199829100001
3660,Bill & Hillary Clinton National Airport/Adams Field,Little Rock,United States,LIT,34.729400634799994,-92.22429656979999
3661,Stewart International Airport,Newburgh,United States,SWF,41.50410079956055,-74.10479736328125
3662,Baudette International Airport,Baudette,United States,BDE,48.7284011841,-94.61219787600001
3663,Sacramento Executive Airport,Sacramento,United States,SAC,38.5125007629,-121.49299621600001
3664,Homer Airport,Homer,United States,HOM,59.64559936523438,-151.4770050048828
3665,Waynesville-St. Robert Regional Forney field,Fort Leonardwood,United States,TBN,37.74160004,-92.14070129
3666,Dobbins Air Reserve Base,Marietta,United States,MGE,33.91540146,-84.51629639
3667,Fairchild Air Force Base,Spokane,United States,SKA,47.6151008606,-117.65599823
3668,Roscommon County - Blodgett Memorial Airport,Houghton Lake,United States,HTL,44.359798,-84.671095
3669,Tyndall Air Force Base,Panama City,United States,PAM,30.0695991516,-85.57540130619998
3670,Dallas Fort Worth International Airport,Dallas-Fort Worth,United States,DFW,32.896801,-97.038002
3671,Melbourne International Airport,Melbourne,United States,MLB,28.10280036926269,-80.64530181884766
3672,McChord Air Force Base,Tacoma,United States,TCM,47.1376991272,-122.475997925
3673,Austin Bergstrom International Airport,Austin,United States,AUS,30.194499969482425,-97.6698989868164
3674,Rickenbacker International Airport,Columbus,United States,LCK,39.813801,-82.927803
3675,Sawyer International Airport,Gwinn,United States,MQT,46.3535995483,-87.39540100100002
3676,McGhee Tyson Airport,Knoxville,United States,TYS,35.81100082,-83.99400329999997
3677,Hood Army Air Field,Fort Hood,United States,HLR,31.1387004852,-97.7145004272
3678,St Louis Lambert International Airport,St. Louis,United States,STL,38.748697,-90.370003
3679,Millville Municipal Airport,Millville,United States,MIV,39.36780200000001,-75.072197
3680,Sheppard Air Force Base-Wichita Falls Municipal Airport,Wichita Falls,United States,SPS,33.9888,-98.491898
3681,Cincinnati Municipal Airport Lunken Field,Cincinnati,United States,LUK,39.10329819,-84.41860199
3682,Hartsfield Jackson Atlanta International Airport,Atlanta,United States,ATL,33.6367,-84.428101
3683,Castle Airport,Merced,United States,MER,37.38050079,-120.5680008
3684,Mc Clellan Airfield,Sacramento,United States,MCC,38.66759872,-121.401001
3685,Gerald R. Ford International Airport,Grand Rapids,United States,GRR,42.88079834,-85.52279663
3686,Winkler County Airport,Wink,United States,INK,31.779600143400003,-103.20099639899999
3687,Fresno Yosemite International Airport,Fresno,United States,FAT,36.77619934082031,-119.71800231933594
3688,Vero Beach Regional Airport,Vero Beach,United States,VRB,27.6556,-80.417901
3689,Imperial County Airport,Imperial,United States,IPL,32.834201812699995,-115.57900238
3690,Nashville International Airport,Nashville,United States,BNA,36.1245002746582,-86.6781997680664
3691,Laredo International Airport,Laredo,United States,LRD,27.543800354003906,-99.46160125732422
3692,Elmendorf Air Force Base,Anchorage,United States,EDF,61.2509994506836,-149.8070068359375
3693,Ralph Wien Memorial Airport,Kotzebue,United States,OTZ,66.88469696,-162.598999
3694,Altoona Blair County Airport,Altoona,United States,AOO,40.29639816,-78.31999969
3695,Dyess Air Force Base,Abilene,United States,DYS,32.4207992554,-99.85459899899999
3696,South Arkansas Regional At Goodwin Field,El Dorado,United States,ELD,33.22100067138672,-92.81330108642578
3697,La Guardia Airport,New York,United States,LGA,40.77719879,-73.87259674
3698,Tallahassee Regional Airport,Tallahassee,United States,TLH,30.396499633789066,-84.35030364990234
3699,Dupage Airport,West Chicago,United States,DPA,41.90779877,-88.24859619
3700,Waco Regional Airport,Waco,United States,ACT,31.61129951477051,-97.23049926757812
3701,Augusta State Airport,Augusta,United States,AUG,44.320598602299995,-69.7973022461
3703,Jacksonville Naval Air Station (Towers Field),Jacksonville,United States,NIP,30.2358,-81.680603
3704,McKellar-Sipes Regional Airport,Jackson,United States,MKL,35.599899,-88.915604
3705,Molokai Airport,Molokai,United States,MKK,21.15290069580078,-157.0959930419922
3706,Godman Army Air Field,Fort Knox,United States,FTK,37.9071006775,-85.9720993042
3708,San Angelo Regional Mathis Field,San Angelo,United States,SJT,31.35770034790039,-100.49600219726562
3709,Calexico International Airport,Calexico,United States,CXL,32.6694984436,-115.51300048799999
3710,Chico Municipal Airport,Chico,United States,CIC,39.79539871,-121.8580017
3711,Burlington International Airport,Burlington,United States,BTV,44.471900939899996,-73.15329742429998
3712,Jacksonville International Airport,Jacksonville,United States,JAX,30.49410057067871,-81.68789672851562
3713,Durango La Plata County Airport,Durango,United States,DRO,37.1515007019,-107.75399780299999
3714,Washington Dulles International Airport,Washington,United States,IAD,38.94449997,-77.45580292
3715,Easterwood Field,College Station,United States,CLL,30.58860016,-96.36380005
3716,Felts Field,Spokane,United States,SFF,47.682800292969,-117.32299804688
3717,General Mitchell International Airport,Milwaukee,United States,MKE,42.94720077514648,-87.89659881591797
3718,Abilene Regional Airport,Abilene,United States,ABI,32.4113006592,-99.68190002440001
3719,Columbia Regional Airport,Columbia,United States,COU,38.81809997558594,-92.21959686279295
3720,Portland International Airport,Portland,United States,PDX,45.58869934,-122.5979996
3721,Dade Collier Training and Transition Airport,Miami,United States,TNT,25.861799240112,-80.897003173828
3722,Palm Beach International Airport,West Palm Beach,United States,PBI,26.68320083618164,-80.09559631347656
3723,Fort Worth Meacham International Airport,Fort Worth,United States,FTW,32.819801,-97.362396
3724,Ogdensburg International Airport,Ogdensburg,United States,OGS,44.681900024399994,-75.46549987790002
3725,Cape Cod Coast Guard Air Station,Falmouth,United States,FMH,41.6584014893,-70.5214004517
3726,Boeing Field King County International Airport,Seattle,United States,BFI,47.52999877929688,-122.302001953125
3727,Lackland Air Force Base,San Antonio,United States,SKF,29.38419914,-98.58110046
3728,Daniel K Inouye International Airport,Honolulu,United States,HNL,21.32062,-157.924228
3729,Des Moines International Airport,Des Moines,United States,DSM,41.53400039672852,-93.66310119628906
3730,Coastal Carolina Regional Airport,New Bern,United States,EWN,35.0730018616,-77.04290008539998
3731,San Diego International Airport,San Diego,United States,SAN,32.7336006165,-117.190002441
3732,Monroe Regional Airport,Monroe,United States,MLU,32.51089859008789,-92.0376968383789
3733,Shaw Air Force Base,Sumter,United States,SSC,33.97269821,-80.47059631
3734,Ontario International Airport,Ontario,United States,ONT,34.05599975585937,-117.60099792480469
3735,Majors Airport,Greenvile,United States,GVT,33.0677986145,-96.0652999878
3736,Roswell International Air Center Airport,Roswell,United States,ROW,33.30160140991211,-104.53099822998048
3737,Coleman A. Young Municipal Airport,Detroit,United States,DET,42.40919876,-83.00990295
3738,Brownsville South Padre Island International Airport,Brownsville,United States,BRO,25.90679931640625,-97.4259033203125
3739,Dothan Regional Airport,Dothan,United States,DHN,31.3213005065918,-85.44960021972656
3740,Cape May County Airport,Wildwood,United States,WWD,39.008499145500004,-74.9083023071
3741,Fallon Naval Air Station,Fallon,United States,NFL,39.41659927,-118.7009964
3742,Selfridge Air National Guard Base Airport,Mount Clemens,United States,MTC,42.613463,-82.836919
3743,Four Corners Regional Airport,Farmington,United States,FMN,36.7411994934,-108.230003357
3744,Corpus Christi International Airport,Corpus Christi,United States,CRP,27.77039909362793,-97.5011978149414
3745,Syracuse Hancock International Airport,Syracuse,United States,SYR,43.11119842529297,-76.1063003540039
3746,Naval Air Station Key West/Boca Chica Field,Key West,United States,NQX,24.57579994,-81.68890381
3747,Chicago Midway International Airport,Chicago,United States,MDW,41.785999,-87.752403
3748,Norman Y. Mineta San Jose International Airport,San Jose,United States,SJC,37.362598,-121.929001
3749,Lea County Regional Airport,Hobbs,United States,HOB,32.6875,-103.2170029
3750,Northeast Philadelphia Airport,Philadelphia,United States,PNE,40.081902,-75.010597
3751,Denver International Airport,Denver,United States,DEN,39.861698150635,-104.672996521
3752,Philadelphia International Airport,Philadelphia,United States,PHL,39.87189865112305,-75.24109649658203
3753,Sioux Gateway Col. Bud Day Field,Sioux City,United States,SUX,42.40259933,-96.38439941
3754,Middle Georgia Regional Airport,Macon,United States,MCN,32.692798614501946,-83.64920043945312
3755,Truth Or Consequences Municipal Airport,Truth Or Consequences,United States,TCS,33.2369003296,-107.27200317399999
3756,Palmdale Regional/USAF Plant 42 Airport,Palmdale,United States,PMD,34.62939835,-118.0849991
3757,Randolph Air Force Base,San Antonio,United States,RND,29.52969933,-98.27890015
3758,El Centro NAF Airport (Vraciu Field),El Centro,United States,NJK,32.829201,-115.671996
3759,John Glenn Columbus International Airport,Columbus,United States,CMH,39.998001,-82.891899
3760,Drake Field,Fayetteville,United States,FYV,36.00510025024414,-94.17009735107422
3761,Henry Post Army Air Field (Fort Sill),Fort Sill,United States,FSI,34.64979935,-98.40219879
3763,Wright-Patterson Air Force Base,Dayton,United States,FFO,39.8260993958,-84.04830169680001
3764,Edward G. Pitka Sr Airport,Galena,United States,GAL,64.73619843,-156.93699650000005
3766,Mineral Wells Airport,Mineral Wells,United States,MWL,32.7816009521,-98.0602035522
3767,Mc Connell Air Force Base,Wichita,United States,IAB,37.62189865,-97.26820374
3768,New Orleans NAS JRB/Alvin Callender Field,New Orleans,United States,NBG,29.82530022,-90.03500366
3769,Beaufort County Airport,Beaufort,United States,BFT,32.4122009277,-80.6343994141
3770,Texarkana Regional Webb Field,Texarkana,United States,TXK,33.45370101928711,-93.99099731445312
3771,Plattsburgh International Airport,Plattsburgh,United States,PBG,44.6509017944336,-73.46810150146484
3772,Phillips Army Air Field,Aberdeen,United States,APG,39.466202,-76.1688
3773,Tucumcari Municipal Airport,Tucumcari,United States,TCC,35.182800293,-103.60299682600001
3774,Ted Stevens Anchorage International Airport,Anchorage,United States,ANC,61.174400329589844,-149.99600219726562
3775,Robert Gray  Army Air Field Airport,Killeen,United States,GRK,31.067199706999997,-97.8289031982
3777,Bellingham International Airport,Bellingham,United States,BLI,48.79280090332031,-122.53800201416016
3778,Millington-Memphis Airport,Millington,United States,NQA,35.356701,-89.8703
3779,Elkins-Randolph Co-Jennings Randolph Field,Elkins,United States,EKN,38.88940048,-79.85710144
3780,Hartford Brainard Airport,Hartford,United States,HFD,41.736698150635,-72.64939880371101
3781,North Central State Airport,Smithfield,United States,SFZ,41.9207992554,-71.49140167239999
3782,Mobile Regional Airport,Mobile,United States,MOB,30.691200256348,-88.242797851562
3783,Moffett Federal Airfield,Mountain View,United States,NUQ,37.4161,-122.049004
3784,Santa Fe Municipal Airport,Santa Fe,United States,SAF,35.617099761999995,-106.08899688700001
3785,Barking Sands Airport,Barking Sands,United States,BKH,22.022800445599998,-159.785003662
3786,Beauregard Regional Airport,Deridder,United States,DRI,30.8316993713,-93.3398971558
3787,Bradshaw Army Airfield,Bradshaw Field,United States,BSF,19.760099411,-155.554000854
3788,Nogales International Airport,Nogales,United States,OLS,31.4177,-110.848
3789,Mac Dill Air Force Base,Tampa,United States,MCF,27.84930038,-82.52120209
3790,Scott AFB/Midamerica Airport,Belleville,United States,BLV,38.5452,-89.835197
3791,Opa-locka Executive Airport,Miami,United States,OPF,25.907,-80.278397
3792,Del Rio International Airport,Del Rio,United States,DRT,29.3742008209,-100.92700195299999
3793,Southwest Florida International Airport,Fort Myers,United States,RSW,26.53619956970215,-81.75520324707031
3794,King Salmon Airport,King Salmon,United States,AKN,58.67679977,-156.6490021
3795,Muir Army Air Field (Fort Indiantown Gap) Airport,Muir,United States,MUI,40.434799,-76.569397
3796,Kapalua Airport,Lahania-kapalua,United States,JHM,20.962900161743164,-156.67300415039062
3797,John F Kennedy International Airport,New York,United States,JFK,40.63980103,-73.77890015
3798,Homestead ARB Airport,Homestead,United States,HST,25.48859978,-80.38359833
3799,Riverside Municipal Airport,Riverside,United States,RAL,33.95190048,-117.4449997
3800,Sherman Army Air Field,Fort Leavenworth,United States,FLV,39.3683013916,-94.9147033691
3801,Wallops Flight Facility Airport,Wallops Island,United States,WAL,37.9402008057,-75.46640014649999
3802,Holloman Air Force Base,Alamogordo,United States,HMN,32.8525009155,-106.107002258
3803,Willow Grove Naval Air Station/Joint Reserve Base,Willow Grove,United States,NXX,40.19979858,-75.14820099
3804,Cheyenne Regional Jerry Olson Field,Cheyenne,United States,CYS,41.15570068,-104.8119965
3805,Stockton Metropolitan Airport,Stockton,United States,SCK,37.894199371338,-121.2379989624
3806,Charleston Air Force Base-International Airport,Charleston,United States,CHS,32.89860153,-80.04049683
3807,Reno Tahoe International Airport,Reno,United States,RNO,39.49909973144531,-119.76799774169922
3808,Ketchikan International Airport,Ketchikan,United States,KTN,55.35559845,-131.7140045
3809,Willow Run Airport,Detroit,United States,YIP,42.23789978,-83.53040314
3810,Vandenberg Air Force Base,Lompoc,United States,VBG,34.7373008728,-120.583999634
3811,Birmingham-Shuttlesworth International Airport,Birmingham,United States,BHM,33.56290054,-86.75350189
3812,Lakehurst Maxfield Field Airport,Lakehurst,United States,NEL,40.03329849,-74.353302
3813,Eareckson Air Station,Shemya,United States,SYA,52.71229935,174.1139984
3814,Nellis Air Force Base,Las Vegas,United States,LSV,36.2361984253,-115.03399658200001
3815,March ARB Airport,Riverside,United States,RIV,33.880699,-117.259003
3816,Modesto City Co-Harry Sham Field,Modesto,United States,MOD,37.62580109,-120.9540024
3817,Sacramento International Airport,Sacramento,United States,SMF,38.69540023803711,-121.59100341796876
3818,Waukegan National Airport,Chicago,United States,UGN,42.422199249268,-87.86789703369102
3819,City of Colorado Springs Municipal Airport,Colorado Springs,United States,COS,38.805801,-104.700996
3820,Buffalo Niagara International Airport,Buffalo,United States,BUF,42.94049835,-78.73220062
3821,Griffing Sandusky Airport,Sandusky,United States,SKY,41.4333992004,-82.6522979736
3822,Snohomish County (Paine Field) Airport,Everett,United States,PAE,47.90629959,-122.2819977
3823,Mountain Home Air Force Base,Mountain Home,United States,MUO,43.043598,-115.872002
3824,Cedar City Regional Airport,Cedar City,United States,CDC,37.70100021362305,-113.0989990234375
3825,Bradley International Airport,Windsor Locks,United States,BDL,41.9388999939,-72.68319702149999
3826,Mc Allen Miller International Airport,Mcallen,United States,MFE,26.17580032,-98.23860168
3827,Norfolk Naval Station (Chambers Field),Norfolk,United States,NGU,36.937599,-76.289299
3828,Westover ARB/Metropolitan Airport,Chicopee Falls,United States,CEF,42.19400024,-72.53479767
3829,Lubbock Preston Smith International Airport,Lubbock,United States,LBB,33.663601,-101.822998
3830,Chicago O'Hare International Airport,Chicago,United States,ORD,41.9786,-87.9048
3831,Boca Raton Airport,Boca Raton,United States,BCT,26.3784999847,-80.1076965332
3832,Fairbanks International Airport,Fairbanks,United States,FAI,64.81510162,-147.85600280000003
3834,Cannon Air Force Base,Clovis,United States,CVS,34.3828010559,-103.321998596
3835,Kaneohe Bay MCAS (Marion E. Carl Field) Airport,Kaneohe Bay,United States,NGF,21.450500488299998,-157.76800537100002
3836,Offutt Air Force Base,Omaha,United States,OFF,41.118301391602,-95.912498474121
3837,Gulkana Airport,Gulkana,United States,GKN,62.15489960000001,-145.4570007
3838,Watertown International Airport,Watertown,United States,ART,43.99190139770508,-76.02169799804688
3839,Palm Springs International Airport,Palm Springs,United States,PSP,33.829700469970696,-116.50700378417969
3840,Rick Husband Amarillo International Airport,Amarillo,United States,AMA,35.219398,-101.706001
3841,Fort Dodge Regional Airport,Fort Dodge,United States,FOD,42.55149841,-94.19259644
3842,Barksdale Air Force Base,Shreveport,United States,BAD,32.5018005371,-93.6626968384
3843,Topeka Regional Airport - Forbes Field,Topeka,United States,FOE,38.9509010315,-95.6635971069
3844,Cotulla-La Salle County Airport,Cotulla,United States,COT,28.45669937,-99.22029877
3845,Wilmington International Airport,Wilmington,United States,ILM,34.27059936523437,-77.90260314941406
3846,Baton Rouge Metropolitan Airport,Baton Rouge,United States,BTR,30.533199,-91.149597
3848,Tyler Pounds Regional Airport,Tyler,United States,TYR,32.35409927368164,-95.40239715576172
3849,Baltimore/Washington International Thurgood Marshall Airport,Baltimore,United States,BWI,39.1754,-76.668297
3850,Hobart Regional Airport,Hobart,United States,HBR,34.991316999999995,-99.051313
3851,Lanai Airport,Lanai,United States,LNY,20.785600662231445,-156.9510040283203
3852,Alexandria International Airport,Alexandria,United States,AEX,31.32740020751953,-92.54979705810548
3853,Condron Army Air Field,White Sands,United States,WSD,32.34149933,-106.4029999
3854,Cold Bay Airport,Cold Bay,United States,CDB,55.20610046386719,-162.72500610351562
3855,Tulsa International Airport,Tulsa,United States,TUL,36.19839859008789,-95.88809967041016
3856,Sitka Rocky Gutierrez Airport,Sitka,United States,SIT,57.04710006713867,-135.36199951171878
3857,Long Island Mac Arthur Airport,Islip,United States,ISP,40.79520035,-73.10019684
3858,Minneapolis-St Paul International/Wold-Chamberlain Airport,Minneapolis,United States,MSP,44.882,-93.221802
3859,New Castle Airport,Wilmington,United States,ILG,39.67869949,-75.60649872
3860,Unalaska Airport,Unalaska,United States,DUT,53.900100708000004,-166.54400634799998
3861,Louis Armstrong New Orleans International Airport,New Orleans,United States,MSY,29.99340057373047,-90.25800323486328
3862,Portland International Jetport Airport,Portland,United States,PWM,43.64619827,-70.30930328
3863,Will Rogers World Airport,Oklahoma City,United States,OKC,35.39310073852539,-97.60070037841795
3864,Albany International Airport,Albany,United States,ALB,42.74829864501953,-73.80169677734375
3865,Valdez Pioneer Field,Valdez,United States,VDZ,61.13389969,-146.24800109999995
3866,Langley Air Force Base,Hampton,United States,LFI,37.082901000999996,-76.360496521
3867,John Wayne Airport-Orange County Airport,Santa Ana,United States,SNA,33.67570114,-117.8679962
3868,Columbus Air Force Base,Colombus,United States,CBM,33.643798828099996,-88.44380187990002
3869,Kendall-Tamiami Executive Airport,Kendall-tamiami,United States,TMB,25.6478996277,-80.432800293
3870,Oceana Naval Air Station,Oceana,United States,NTU,36.820702,-76.033501
3871,Grissom Air Reserve Base,Peru,United States,GUS,40.648101806599996,-86.15209960940003
3872,Casper-Natrona County International Airport,Casper,United States,CPR,42.908001,-106.463997
3873,Destin-Ft Walton Beach Airport,Valparaiso,United States,VPS,30.4832,-86.525398
3874,Craig Field,Selma,United States,SEM,32.343898773193004,-86.98780059814501
3875,Key West International Airport,Key West,United States,EYW,24.556100845336914,-81.75959777832031
3876,Charlotte Douglas International Airport,Charlotte,United States,CLT,35.2140007019043,-80.94309997558594
3877,McCarran International Airport,Las Vegas,United States,LAS,36.08010101,-115.1520004
3878,Orlando International Airport,Orlando,United States,MCO,28.429399490356445,-81.30899810791016
3879,Florence Regional Airport,Florence,United States,FLO,34.18539810180664,-79.7238998413086
3880,Great Falls International Airport,Great Falls,United States,GTF,47.48199844,-111.3710022
3881,Youngstown Warren Regional Airport,Youngstown,United States,YNG,41.26070023,-80.67910004
3882,Ladd AAF Airfield,Fort Wainwright,United States,FBK,64.83750153,-147.6139984
3884,Robins Air Force Base,Macon,United States,WRB,32.640098571799996,-83.59190368649999
3944,Pullman Moscow Regional Airport,Pullman,United States,PUW,46.7439,-117.110001
3945,Lewiston Nez Perce County Airport,Lewiston,United States,LWS,46.3745002746582,-117.01499938964844
3946,Elmira Corning Regional Airport,Elmira,United States,ELM,42.1599006652832,-76.8916015625
3947,Ithaca Tompkins Regional Airport,Ithaca,United States,ITH,42.49100112915039,-76.4583969116211
3948,Monterey Peninsula Airport,Monterey,United States,MRY,36.58700180053711,-121.84300231933594
3949,Santa Barbara Municipal Airport,Santa Barbara,United States,SBA,34.42620087,-119.8399963
3950,Daytona Beach International Airport,Daytona Beach,United States,DAB,29.179899,-81.058098
3993,Downtown-Manhattan/Wall St Heliport,New York,United States,JRB,40.70119858,-74.00900269
4004,Talkeetna Airport,Talkeetna,United States,TKA,62.320499420165994,-150.09399414062
4006,Tweed New Haven Airport,New Haven,United States,HVN,41.26369858,-72.88680267
4007,Asheville Regional Airport,Asheville,United States,AVL,35.43619918823242,-82.54180145263672
4008,Piedmont Triad International Airport,Greensboro,United States,GSO,36.097801208496094,-79.93730163574219
4009,Joe Foss Field Airport,Sioux Falls,United States,FSD,43.5820007324,-96.741897583
4011,Manchester-Boston Regional Airport,Manchester NH,United States,MHT,42.932598,-71.435699
4012,Naples Municipal Airport,Naples,United States,APF,26.1525993347,-81.7752990723
4014,Louisville International Standiford Field,Louisville,United States,SDF,38.1744,-85.736
4015,Charlottesville Albemarle Airport,Charlottesville VA,United States,CHO,38.13859939575195,-78.4529037475586
4016,Roanoke–Blacksburg Regional Airport,Roanoke VA,United States,ROA,37.3255,-79.975403
4017,Blue Grass Airport,Lexington KY,United States,LEX,38.0364990234375,-84.60590362548828
4018,Evansville Regional Airport,Evansville,United States,EVV,38.0369987488,-87.53240203860001
4019,Albuquerque International Sunport,Albuquerque,United States,ABQ,35.040199,-106.609001
4020,Gallatin Field,Bozeman,United States,BZN,45.77750015,-111.1529999
4021,Billings Logan International Airport,Billings,United States,BIL,45.807701110839844,-108.54299926757812
4022,Bert Mooney Airport,Butte,United States,BTM,45.95479965209961,-112.49700164794922
4023,Cherry Capital Airport,Traverse City,United States,TVC,44.74140167236328,-85.58219909667969
4025,Hancock County-Bar Harbor Airport,Bar Harbor,United States,BHB,44.45000076,-68.36150359999999
4026,Knox County Regional Airport,Rockland,United States,RKD,44.06010056,-69.09919739
4027,Jackson Hole Airport,Jacksn Hole,United States,JAC,43.6072998046875,-110.73799896240234
4028,Chicago Rockford International Airport,Rockford,United States,RFD,42.19540023803711,-89.09719848632812
4034,Greenville Spartanburg International Airport,Greenville,United States,GSP,34.895698547399995,-82.2189025879
4037,Central Illinois Regional Airport at Bloomington-Normal,Bloomington,United States,BMI,40.47710037,-88.91590118
4038,Gulfport Biloxi International Airport,Gulfport,United States,GPT,30.40730094909668,-89.07009887695312
4039,Kalamazoo Battle Creek International Airport,Kalamazoo,United States,AZO,42.234901428222656,-85.5521011352539
4040,Toledo Express Airport,Toledo,United States,TOL,41.58679962,-83.80780029
4041,Fort Wayne International Airport,Fort Wayne,United States,FWA,40.97850037,-85.19509888
4042,Decatur Airport,Decatur,United States,DEC,39.83459854125977,-88.8656997680664
4043,The Eastern Iowa Airport,Cedar Rapids,United States,CID,41.88470077514648,-91.71080017089844
4044,La Crosse Municipal Airport,La Crosse,United States,LSE,43.879002,-91.256699
4045,Central Wisconsin Airport,Wassau,United States,CWA,44.7775993347,-89.6668014526
4046,General Wayne A. Downing Peoria International Airport,Peoria,United States,PIA,40.664199829100006,-89.6932983398
4047,Appleton International Airport,Appleton,United States,ATW,44.258098602299995,-88.51909637450001
4048,Rochester International Airport,Rochester,United States,RST,43.90829849243164,-92.5
4049,University of Illinois Willard Airport,Champaign,United States,CMI,40.03919983,-88.27809906
4050,Manhattan Regional Airport,Manhattan,United States,MHK,39.14099884033203,-96.6707992553711
4058,Venango Regional Airport,Franklin,United States,FKL,41.3778991699,-79.8603973389
4063,Grand Junction Regional Airport,Grand Junction,United States,GJT,39.1223983765,-108.527000427
4064,St George Municipal Airport,Saint George,United States,SGU,37.036389,-113.510306
4065,David Wayne Hooks Memorial Airport,Houston,United States,DWH,30.0618000031,-95.5528030396
4067,Sarasota Bradenton International Airport,Sarasota,United States,SRQ,27.39539909362793,-82.55439758300781
4071,Van Nuys Airport,Van Nuys,United States,VNY,34.209800720215,-118.48999786377001
4072,Quad City International Airport,Moline,United States,MLI,41.44850158691406,-90.50749969482422
4073,Panama City-Bay Co International Airport,Panama City,United States,PFN,30.212099,-85.6828
4083,Bismarck Municipal Airport,Bismarck,United States,BIS,46.77270126342773,-100.74600219726562
4084,Telluride Regional Airport,Telluride,United States,TEX,37.9538002,-107.9079971
4087,Rapid City Regional Airport,Rapid City,United States,RAP,44.0452995300293,-103.05699920654295
4088,Mc Clellan-Palomar Airport,Carlsbad,United States,CLD,33.12829971,-117.2799988
4089,Bishop International Airport,Flint,United States,FNT,42.96540069580078,-83.74359893798828
4098,Redding Municipal Airport,Redding,United States,RDD,40.50899887,-122.2929993
4099,Mahlon Sweet Field,Eugene,United States,EUG,44.12459945678711,-123.21199798583984
4100,Idaho Falls Regional Airport,Idaho Falls,United States,IDA,43.514599,-112.070999
4101,Rogue Valley International Medford Airport,Medford,United States,MFR,42.37419891357422,-122.8730010986328
4103,Roberts Field,Redmond-Bend,United States,RDM,44.2541008,-121.1500015
4112,Akron Canton Regional Airport,Akron,United States,CAK,40.916099548339844,-81.44219970703125
4113,Huntsville International Carl T Jones Field,Huntsville,United States,HSV,34.637199401855,-86.775100708008
4114,Mid Ohio Valley Regional Airport,PARKERSBURG,United States,PKB,39.34510040283203,-81.43920135498047
4115,Montgomery Regional (Dannelly Field) Airport,MONTGOMERY,United States,MGM,32.30059814,-86.39399719
4116,Tri-Cities Regional TN/VA Airport,BRISTOL,United States,TRI,36.475201,-82.40740100000002
4117,Barkley Regional Airport,PADUCAH,United States,PAH,37.06079864501953,-88.7738037109375
4124,Page Municipal Airport,Page,United States,PGA,36.92610168,-111.447998
4127,Glacier Park International Airport,Kalispell,United States,FCA,48.31050109863281,-114.25599670410156
4128,MBS International Airport,Saginaw,United States,MBS,43.532901763916016,-84.07959747314453
4129,Greater Binghamton/Edwin A Link field,Binghamton,United States,BGM,42.20869827,-75.97979736
4136,Blythe Airport,Blythe,United States,BLH,33.6192016602,-114.717002869
4147,Petersburg James A Johnson Airport,Petersburg,United States,PSG,56.80170059,-132.9450073
4167,Orlando Sanford International Airport,Sanford,United States,SFB,28.7775993347168,-81.23750305175781
4169,John Murtha Johnstown Cambria County Airport,Johnstown,United States,JST,40.31610107421875,-78.83390045166016
4216,Missoula International Airport,Missoula,United States,MSO,46.91630173,-114.0910034
4219,Grand Canyon National Park Airport,Grand Canyon,United States,GCN,35.95240020751953,-112.14700317382812
4220,Sugar Land Regional Airport,Sugar Land,United States,SGR,29.622299194335998,-95.65650177002001
4222,Centennial Airport,Denver,United States,APA,39.57009888,-104.848999
4223,Clovis Municipal Airport,Clovis,United States,CVN,34.4250984192,-103.07900238
4224,Fort Stockton Pecos County Airport,Fort Stockton,United States,FST,30.9157009125,-102.916000366
4225,Las Vegas Municipal Airport,Las Vegas,United States,LVS,35.6542015076,-105.14199829100001
4226,West Houston Airport,Houston,United States,IWS,29.8181991577,-95.6725997925
4228,Las Cruces International Airport,Las Cruces,United States,LRU,32.28939819335937,-106.9219970703125
4229,Stephens County Airport,Breckenridge,United States,BKD,32.71900177,-98.8909988403
4230,Draughon Miller Central Texas Regional Airport,Temple,United States,TPL,31.15250015258789,-97.40779876708984
4231,Ozona Municipal Airport,Ozona,United States,OZA,30.735300064087,-101.20300292969
4250,Eagle County Regional Airport,Vail,United States,EGE,39.64260101,-106.9179993
4253,Cuyahoga County Airport,Richmond Heights,United States,CGF,41.5651016235,-81.4863967896
4254,Mansfield Lahm Regional Airport,Mansfield,United States,MFD,40.82139968869999,-82.5166015625
4255,Columbus Metropolitan Airport,Columbus,United States,CSG,32.516300201416016,-84.93890380859375
4256,Lawton Fort Sill Regional Airport,Lawton,United States,LAW,34.5676994324,-98.4166030884
4257,Northern Colorado Regional Airport,Fort Collins,United States,FNL,40.451804,-105.011
4261,Flagstaff Pulliam Airport,Flagstaff,United States,FLG,35.13850021,-111.6709976
4262,Lake Tahoe Airport,South Lake Tahoe,United States,TVL,38.89390182495117,-119.99500274658205
4263,Joslin Field Magic Valley Regional Airport,Twin Falls,United States,TWF,42.4818,-114.487999
4265,Martha's Vineyard Airport,Vineyard Haven MA,United States,MVY,41.393100738499996,-70.6143035889
4268,Concord Municipal Airport,Concord NH,United States,CON,43.20270157,-71.50229645
4270,Groton New London Airport,Groton CT,United States,GON,41.3301010131836,-72.04509735107422
4271,St Cloud Regional Airport,Saint Cloud,United States,STC,45.54660034179688,-94.05989837646484
4273,Golden Triangle Regional Airport,Columbus Mississippi,United States,GTR,33.450298309299995,-88.59140014649998
4275,Bowerman Airport,Hoquiam,United States,HQM,46.9711990356,-123.93699646
4276,Erie International Tom Ridge Field,Erie,United States,ERI,42.0831270134,-80.1738667488
4278,Barnstable Municipal Boardman Polando Field,Barnstable,United States,HYA,41.66930008,-70.28040314
4280,Sedona Airport,Sedona,United States,SDX,34.848598480225,-111.78800201416
4284,Morgantown Municipal Walter L. Bill Hart Field,Morgantown,United States,MGW,39.64289856,-79.91629791
4285,Yeager Airport,Charleston,United States,CRW,38.37310028076172,-81.59320068359375
4286,Wilkes Barre Scranton International Airport,Scranton,United States,AVP,41.338500976599995,-75.72339630130001
4287,Bemidji Regional Airport,Bemidji,United States,BJI,47.50939941,-94.93370056
4292,Hector International Airport,Fargo,United States,FAR,46.92070007324219,-96.81580352783205
4293,Charles B. Wheeler Downtown Airport,Kansas City,United States,MKC,39.12319946289063,-94.5927963256836
4296,Gillette Campbell County Airport,Gillette,United States,GCC,44.3488998413,-105.539001465
4298,El Toro Marine Corps Air Station,Santa Ana,United States,NZJ,33.676101684570305,-117.7310028076172
4318,University Park Airport,State College Pennsylvania,United States,SCE,40.8493003845,-77.84870147710002
4335,Key Field,Meridian,United States,MEI,32.33259963989258,-88.75189971923828
4336,Abraham Lincoln Capital Airport,Springfield,United States,SPI,39.84410095,-89.67790222
4338,Cortez Municipal Airport,Cortez,United States,CEZ,37.3030014038,-108.627998352
4339,Yampa Valley Airport,Hayden,United States,HDN,40.48120117,-107.2180023
4340,Gallup Municipal Airport,Gallup,United States,GUP,35.511100769,-108.789001465
4341,Liberal Mid-America Regional Airport,Liberal,United States,LBL,37.04420089999999,-100.9599991
4342,Lamar Municipal Airport,Lamar,United States,LAA,38.069698333699996,-102.68800354
4343,Renner Field-Goodland Municipal Airport,Goodland,United States,GLD,39.37060165,-101.6989975
4344,Yellowstone Regional Airport,Cody,United States,COD,44.520198822,-109.024002075
4348,Springfield Branson National Airport,Springfield,United States,SGF,37.24570084,-93.38860321
4354,Joplin Regional Airport,Joplin,United States,JLN,37.151798248291016,-94.49829864501952
4355,Lehigh Valley International Airport,Allentown,United States,ABE,40.652099609375,-75.44080352783203
4356,Northwest Arkansas Regional Airport,Bentonville,United States,XNA,36.281898,-94.306801
4359,South Bend Regional Airport,South Bend,United States,SBN,41.70869827270508,-86.31729888916016
4383,Smith Field,Fort Wayne IN,United States,SMD,41.14339828,-85.15280151
4384,California Redwood Coast-Humboldt County Airport,Arcata CA,United States,ACV,40.978101,-124.109
4386,Albert J Ellis Airport,Jacksonville NC,United States,OAJ,34.8292007446,-77.61209869380002
4387,Tuscaloosa Regional Airport,Tuscaloosa AL,United States,TCL,33.220600128174,-87.611396789551
4388,Dubuque Regional Airport,Dubuque IA,United States,DBQ,42.40200043,-90.70950317
5714,Aberdeen Regional Airport,Aberdeen,United States,ABR,45.44910049438477,-98.42179870605469
5715,Southwest Georgia Regional Airport,Albany,United States,ABY,31.535499572753906,-84.19450378417969
5716,Athens Ben Epps Airport,Athens,United States,AHN,33.94860076904297,-83.32630157470703
5717,Alamogordo White Sands Regional Airport,Alamogordo,United States,ALM,32.839900970500004,-105.990997314
5718,Waterloo Regional Airport,Waterloo,United States,ALO,42.55709838867188,-92.40029907226562
5719,Walla Walla Regional Airport,Walla Walla,United States,ALW,46.09489822,-118.288002
5720,Alpena County Regional Airport,Alpena,United States,APN,45.07809829999999,-83.56030273
5721,Watertown Regional Airport,Watertown,United States,ATY,44.91400146,-97.15470123
5722,Bradford Regional Airport,Bradford,United States,BFD,41.8031005859375,-78.64009857177734
5723,Western Neb. Rgnl/William B. Heilig Airport,Scottsbluff,United States,BFF,41.87400055,-103.5960007
5724,Raleigh County Memorial Airport,Beckley,United States,BKW,37.787300109899995,-81.1241989136
5725,Brunswick Golden Isles Airport,Brunswick,United States,BQK,31.2588005065918,-81.46649932861328
5726,Southeast Iowa Regional Airport,Burlington,United States,BRL,40.783199310302734,-91.12550354003906
5727,Jack Mc Namara Field Airport,Crescent City,United States,CEC,41.78020096,-124.2369995
5728,Cape Girardeau Regional Airport,Cape Girardeau,United States,CGI,37.22529983520508,-89.57080078125
5729,Chippewa County International Airport,Sault Ste Marie,United States,CIU,46.25080108642578,-84.47239685058594
5730,North Central West Virginia Airport,Clarksburg,United States,CKB,39.2966003418,-80.2281036377
5731,William R Fairchild International Airport,Port Angeles,United States,CLM,48.120201110839844,-123.5
5732,Houghton County Memorial Airport,Hancock,United States,CMX,47.16839981079102,-88.48909759521484
5733,Dodge City Regional Airport,Dodge City,United States,DDC,37.76340103149414,-99.9655990600586
5734,DuBois Regional Airport,Du Bois,United States,DUJ,41.17829895,-78.8986969
5735,Chippewa Valley Regional Airport,Eau Claire,United States,EAU,44.86579895019531,-91.48429870605469
5736,Elko Regional Airport,Elko,United States,EKO,40.82490158081055,-115.79199981689452
5737,New Bedford Regional Airport,New Bedford,United States,EWB,41.67610168457031,-70.95690155029297
5738,Fayetteville Regional Grannis Field,Fayetteville,United States,FAY,34.991199493408196,-78.88030242919922
5739,Wokal Field Glasgow International Airport,Glasgow,United States,GGW,48.212502,-106.614998
5740,Central Nebraska Regional Airport,Grand Island,United States,GRI,40.96749877929688,-98.30960083007812
5741,Memorial Field,Hot Springs,United States,HOT,34.47800064086914,-93.09619903564452
5742,Tri-State/Milton J. Ferguson Field,Huntington,United States,HTS,38.36669922,-82.55799866
5744,Kirksville Regional Airport,Kirksville,United States,IRK,40.09349822998047,-92.5448989868164
5745,Jamestown Regional Airport,Jamestown,United States,JMS,46.92969894,-98.67819977
5746,Laramie Regional Airport,Laramie,United States,LAR,41.31209945678711,-105.6750030517578
5747,Arnold Palmer Regional Airport,Latrobe,United States,LBE,40.27590179,-79.40480042
5748,North Platte Regional Airport Lee Bird Field,North Platte,United States,LBF,41.12620163,-100.6839981
5749,Lebanon Municipal Airport,Lebanon,United States,LEB,43.626098632799994,-72.30419921880002
5750,Crater Lake-Klamath Regional Airport,Klamath Falls,United States,LMT,42.156101,-121.733002
5751,Lancaster Airport,Lancaster,United States,LNS,40.12170028686523,-76.29609680175781
5752,Lewistown Municipal Airport,Lewistown,United States,LWT,47.04930114746094,-109.46700286865234
5753,Lynchburg Regional Preston Glenn Field,Lynchburg,United States,LYH,37.326698303222656,-79.20040130615234
5754,Muskegon County Airport,Muskegon,United States,MKG,43.16949844,-86.23819733
5755,Frank Wiley Field,Miles City,United States,MLS,46.428001403808594,-105.88600158691406
5756,Northwest Alabama Regional Airport,Muscle Shoals,United States,MSL,34.74530029,-87.61019897
5757,Southwest Oregon Regional Airport,North Bend,United States,OTH,43.41709899902344,-124.24600219726562
5758,Owensboro Daviess County Airport,Owensboro,United States,OWB,37.74010086,-87.16680145
5759,Hattiesburg Laurel Regional Airport,Hattiesburg/Laurel,United States,PIB,31.467100143432607,-89.33709716796875
5760,Pocatello Regional Airport,Pocatello,United States,PIH,42.9098014831543,-112.59600067138672
5761,Pierre Regional Airport,Pierre,United States,PIR,44.38270187,-100.2860031
5762,Pellston Regional Airport of Emmet County Airport,Pellston,United States,PLN,45.57089996,-84.79669952
5763,Portsmouth International at Pease Airport,Portsmouth,United States,PSM,43.0778999329,-70.8233032227
5764,Reading Regional Carl A Spaatz Field,Reading,United States,RDG,40.378501892089844,-75.96520233154297
5765,Rhinelander Oneida County Airport,Rhinelander,United States,RHI,45.63119888305664,-89.46749877929688
5766,Southwest Wyoming Regional Airport,Rock Springs,United States,RKS,41.5942,-109.065001
5767,Rutland - Southern Vermont Regional Airport,Rutland,United States,RUT,43.52939987,-72.94960022
5768,San Luis County Regional Airport,San Luis Obispo,United States,SBP,35.2368011475,-120.64199829100001
5769,Sheridan County Airport,Sheridan,United States,SHR,44.76919937133789,-106.9800033569336
5770,Adirondack Regional Airport,Saranac Lake,United States,SLK,44.38529968261719,-74.2061996459961
5771,Salina Municipal Airport,Salina,United States,SLN,38.79100036621094,-97.6521987915039
5772,Santa Maria Pub/Capt G Allan Hancock Field,Santa Maria,United States,SMX,34.89889908,-120.4570007
5773,Tupelo Regional Airport,Tupelo,United States,TUP,34.26810073852539,-88.7698974609375
5774,Quincy Regional Baldwin Field,Quincy,United States,UIN,39.94269943,-91.19460297
5775,Victoria Regional Airport,Victoria,United States,VCT,28.85260009765625,-96.9185028076172
5776,Valdosta Regional Airport,Valdosta,United States,VLD,30.78249931335449,-83.27670288085938
5777,Worland Municipal Airport,Worland,United States,WRL,43.9656982421875,-107.95099639892578
5779,Yakima Air Terminal McAllister Field,Yakima,United States,YKM,46.56819916,-120.5439987
5959,Adak Airport,Adak Island,United States,ADK,51.87799835205078,-176.64599609375
5960,Gustavus Airport,Gustavus,United States,GST,58.42530060000001,-135.7070007
5961,Skagway Airport,Skagway,United States,SGY,59.46009826660156,-135.31599426269528
5962,Holy Cross Airport,Holy Cross,United States,HCR,62.18830108642578,-159.77499389648438
5963,Haines Airport,Haines,United States,HNS,59.24380111694336,-135.52400207519528
5964,Kalskag Airport,Kalskag,United States,KLG,61.53630065917969,-160.34100341796875
5965,McGrath Airport,Mcgrath,United States,MCG,62.95289993,-155.60600280000003
5966,Mountain Village Airport,Mountain Village,United States,MOU,62.09540176391602,-163.6820068359375
5967,Aniak Airport,Aniak,United States,ANI,61.58160018920898,-159.54299926757812
5968,Chevak Airport,Chevak,United States,VAK,61.5409,-165.6005
5969,Wrangell Airport,Wrangell,United States,WRG,56.48429871,-132.36999509999998
5989,Kalaupapa Airport,Molokai,United States,LUP,21.21100044,-156.973999
6126,Aleknagik / New Airport,Aleknagik,United States,WKK,59.2826004028,-158.617996216
6128,Mercer County Airport,Bluefield,United States,BLF,37.295799255371094,-81.20770263671875
6130,Mid Delta Regional Airport,Greenville,United States,GLH,33.482898712158196,-90.98560333251952
6133,Tri Cities Airport,Pasco,United States,PSC,46.26470184326172,-119.11900329589844
6134,Akutan Seaplane Base,Akutan,United States,KQA,54.1337704415,-165.77889561700002
6136,Lopez Island Airport,Lopez,United States,LPS,48.4838981628418,-122.93800354003906
6415,Waikoloa Heliport,Waikoloa Village,United States,WKL,19.9205,-155.8607
6426,Worcester Regional Airport,Worcester,United States,ORH,42.26729965209961,-71.87570190429688
6445,Bremerton National Airport,Bremerton,United States,PWT,47.490200042725,-122.76499938965
6446,Spencer Municipal Airport,Spencer,United States,SPW,43.165500640869,-95.202796936035
6447,Jefferson City Memorial Airport,Jefferson City,United States,JEF,38.591201782199995,-92.1560974121
6456,Provincetown Municipal Airport,Provincetown,United States,PVC,42.071899414099995,-70.2213973999
6481,Fullerton Municipal Airport,Fullerton,United States,FUL,33.8720016479,-117.980003357
6482,Concord-Padgett Regional Airport,Concord,United States,USA,35.387798,-80.709099
6494,Friedman Memorial Airport,Hailey,United States,SUN,43.50439835,-114.2959976
6500,Mason City Municipal Airport,Mason City,United States,MCW,43.15779876710001,-93.33129882809999
6505,Phoenix-Mesa-Gateway Airport,Mesa,United States,AZA,33.30780029,-111.6549988
6712,Anaktuvuk Pass Airport,Anaktuvuk Pass,United States,AKP,68.13359833,-151.7429962
6713,Anvik Airport,Anvik,United States,ANV,62.64670200000001,-160.190994
6714,Atqasuk Edward Burnell Sr Memorial Airport,Atqasuk,United States,ATK,70.46730041503906,-157.43600463867188
6715,Gambell Airport,Gambell,United States,GAM,63.76679992675781,-171.73300170898438
6716,Hooper Bay Airport,Hooper Bay,United States,HPB,61.52389908,-166.1470032
6717,Kaltag Airport,Kaltag,United States,KAL,64.31909943,-158.74099730000003
6718,St Mary's Airport,St Mary's,United States,KSM,62.0605011,-163.30200200000004
6719,Kivalina Airport,Kivalina,United States,KVL,67.73619842529297,-164.56300354003906
6720,Mekoryuk Airport,Mekoryuk,United States,MYU,60.37139892578125,-166.27099609375
6722,Ruby Airport,Ruby,United States,RBY,64.72720337,-155.47000119999996
6723,Shishmaref Airport,Shishmaref,United States,SHH,66.249604,-166.089112
6724,Savoonga Airport,Savoonga,United States,SVA,63.6864013671875,-170.4929962158203
6725,Noatak Airport,Noatak,United States,WTK,67.56610107421875,-162.97500610351562
6729,Arctic Village Airport,Arctic Village,United States,ARC,68.1147,-145.578995
6736,Port Clarence Coast Guard Station,Port Clarence,United States,KPC,65.25370025630001,-166.85899353
6739,Hagerstown Regional Richard A Henson Field,Hagerstown,United States,HGR,39.707901,-77.72949982
6742,Sand Point Airport,Sand Point,United States,SDP,55.31499862670898,-160.5229949951172
6755,Deering Airport,Deering,United States,DRG,66.0696029663,-162.76600647
6763,Igiugig Airport,Igiugig,United States,IGG,59.32400131225586,-155.90199279785156
6764,New Stuyahok Airport,New Stuyahok,United States,KNW,59.4499015808,-157.32800293
6765,King Cove Airport,King Cove,United States,KVC,55.11629867553711,-162.26600646972656
6766,Port Heiden Airport,Port Heiden,United States,PTH,56.95909881591797,-158.63299560546875
6767,Togiak Airport,Togiak Village,United States,TOG,59.05279922485352,-160.39700317382812
6800,Delta County Airport,Escanaba,United States,ESC,45.7226982117,-87.0936965942
6803,Yakutat Airport,Yakutat,United States,YAK,59.503299713100006,-139.660003662
6825,Williamson County Regional Airport,Marion,United States,MWA,37.75500107,-89.01110077
6837,Ford Airport,Iron Mountain,United States,IMT,45.8184013367,-88.11450195309997
6839,Allakaket Airport,Allakaket,United States,AET,66.5518035889,-152.621994019
6844,Michigan City Municipal Airport,Michigan City,United States,MGC,41.703300476100004,-86.8211975098
6845,Seward Airport,Seward,United States,SWD,60.12689971923828,-149.41900634765625
6849,Grand Marais Cook County Airport,Grand Marais,United States,GRM,47.838298797600004,-90.3828964233
6853,Wausau Downtown Airport,Wausau,United States,AUW,44.9262008667,-89.62660217290001
6871,Delaware County Johnson Field,Muncie,United States,MIE,40.2422981262207,-85.3958969116211
6873,Purdue University Airport,Lafayette,United States,LAF,40.41230010986328,-86.93689727783203
6877,North Las Vegas Airport,Las Vegas,United States,VGT,36.21070098877,-115.19400024414
6878,Kenosha Regional Airport,Kenosha,United States,ENW,42.59569931,-87.92780304
6880,Montrose Regional Airport,Montrose CO,United States,MTJ,38.5097999573,-107.89399719200001
6881,Riverton Regional Airport,Riverton WY,United States,RIW,43.064201355,-108.459999084
6883,Eastern Oregon Regional At Pendleton Airport,Pendleton,United States,PDT,45.695098877,-118.84100341799999
6909,Wittman Regional Airport,Oshkosh,United States,OSH,43.98440170288086,-88.55699920654297
6916,Pangborn Memorial Airport,Wenatchee,United States,EAT,47.3988990784,-120.20700073200001
6948,NAS Fort Worth JRB/Carswell Field,Dallas,United States,FWH,32.76919937,-97.4414978
6956,Gary Chicago International Airport,Gary,United States,GYY,41.61629867553711,-87.41280364990234
6957,Brainerd Lakes Regional Airport,Brainerd,United States,BRD,46.39830017,-94.13809967
6958,Greenbrier Valley Airport,Lewisburg,United States,LWB,37.8582992554,-80.3994979858
6959,Pitt Greenville Airport,Greenville,United States,PGV,35.6352005,-77.38529968
6960,Chefornak Airport,Chefornak,United States,CYF,60.1492004395,-164.285995483
6961,Oxnard Airport,Oxnard,United States,OXR,34.200801849365,-119.20700073241998
6962,Branson Airport,Branson,United States,BKG,36.532082,-93.200544
6968,Schenectady County Airport,Scotia NY,United States,SCH,42.852500915527,-73.92890167236301
6989,Northeast Florida Regional Airport,St. Augustine Airport,United States,UST,29.9592,-81.339798
6992,Charles M. Schulz Sonoma County Airport,Santa Rosa,United States,STS,38.50899887,-122.8130035
6993,Kissimmee Gateway Airport,Kissimmee,United States,ISM,28.289800643899998,-81.43710327149999
6994,Lake City Gateway Airport,Lake City,United States,LCQ,30.181999206500002,-82.57689666750002
6998,Logan-Cache Airport,Logan,United States,LGU,41.7911987305,-111.851997375
6999,Brigham City Regional Airport,Brigham City,United States,BMC,41.552399,-112.061996
7001,Aspen-Pitkin Co/Sardy Field,Aspen,United States,ASE,39.22320175,-106.8690033
7009,Kerrville Municipal Louis Schreiner Field,Kerrville,United States,ERV,29.9766998291,-99.08570098879999
7011,Sussex County Airport,Georgetown,United States,GED,38.68920135,-75.35890198
7013,Great Bend Municipal Airport,Great Bend,United States,GBD,38.3442993164,-98.85919952389999
7014,Hays Regional Airport,Hays,United States,HYS,38.84220123,-99.27320099
7015,Spirit of St Louis Airport,Null,United States,SUS,38.662101745605,-90.652000427246
7016,Ely Municipal Airport,Ely,United States,LYU,47.82450104,-91.83070374
7017,Grand Rapids Itasca Co-Gordon Newstrom field,Grand Rapids MN,United States,GPZ,47.21110153,-93.50980377
7018,Thief River Falls Regional Airport,Thief River Falls,United States,TVF,48.06570053,-96.18499756
7019,Eagle River Union Airport,Eagle River,United States,EGV,45.9323005676,-89.26830291750002
7020,Lakeland-Noble F. Lee Memorial field,Minocqua - Woodruff,United States,ARV,45.92789841,-89.73090363
7025,Catalina Airport,Catalina Island,United States,AVX,33.4049,-118.416
7026,Mojave Airport,Mojave,United States,MHV,35.05939865,-118.1520004
7035,Hutchinson Municipal Airport,Hutchinson,United States,HUT,38.0654983521,-97.86060333250002
7042,Rosecrans Memorial Airport,Rosecrans,United States,STJ,39.771900177002,-94.909698486328
7048,Volk Field,Camp Douglas,United States,VOK,43.938999176025,-90.253402709961
7051,Gunnison Crested Butte Regional Airport,Gunnison,United States,GUC,38.53390121,-106.9329987
7053,Zamperini Field,Torrance,United States,TOA,33.803398132324,-118.33999633789
7054,Manistee Co Blacker Airport,Manistee,United States,MBL,44.2723999,-86.24690247
7056,Charlotte County Airport,Punta Gorda,United States,PGD,26.92020035,-81.99050140000001
7058,Northern Aroostook Regional Airport,Frenchville,United States,WFK,47.2854995728,-68.31279754639999
7059,Chautauqua County-Jamestown Airport,Jamestown,United States,JHW,42.15340042,-79.25800323
7061,Lake Cumberland Regional Airport,Somerset,United States,SME,37.0533981323,-84.61589813229999
7062,Shenandoah Valley Regional Airport,Weyers Cave,United States,SHD,38.2638015747,-78.8964004517
7063,Devils Lake Regional Airport,Devils Lake,United States,DVL,48.11420059,-98.90879822
7064,Dickinson Theodore Roosevelt Regional Airport,Dickinson,United States,DIK,46.7974014282,-102.80200195299999
7065,Sidney - Richland Regional Airport,Sidney,United States,SDY,47.706902,-104.193001
7066,Chadron Municipal Airport,Chadron,United States,CDR,42.837600708000004,-103.095001221
7067,Alliance Municipal Airport,Alliance,United States,AIA,42.0531997681,-102.804000854
7068,Mc Cook Ben Nelson Regional Airport,McCook,United States,MCK,40.20629883,-100.5920029
7069,The Florida Keys Marathon Airport,Marathon,United States,MTH,24.726101,-81.051399
7070,Dawson Community Airport,Glendive,United States,GDV,47.13869858,-104.8069992
7071,L M Clayton Airport,Wolf Point,United States,OLF,48.0945014954,-105.57499694799999
7072,Yellowstone Airport,West Yellowstone,United States,WYS,44.68840027,-111.1179962
7073,San Luis Valley Regional Bergman Field,Alamosa,United States,ALS,37.434898,-105.866997
7074,Canyonlands Field,Moab,United States,CNY,38.75500107,-109.7549973
7075,Ely Airport Yelland Field,Ely,United States,ELY,39.29970169,-114.8420029
7076,Vernal Regional Airport,Vernal,United States,VEL,40.4408989,-109.5100021
7077,Sierra Blanca Regional Airport,Ruidoso,United States,RUI,33.462799072266,-105.53500366211
7078,Show Low Regional Airport,Show Low,United States,SOW,34.265499115,-110.005996704
7079,McCall Municipal Airport,McCall,United States,MYL,44.88970184,-116.1009979
7080,Lemhi County Airport,Salmon,United States,SMN,45.1237983704,-113.880996704
7081,Mammoth Yosemite Airport,Mammoth Lakes,United States,MMH,37.62409973,-118.83799740000002
7082,Friday Harbor Airport,Friday Harbor,United States,FRD,48.5219993591,-123.024002075
7083,Orcas Island Airport,Eastsound,United States,ESD,48.708198547399995,-122.91000366200001
7085,Astoria Regional Airport,Astoria,United States,AST,46.158000946,-123.87899780299999
7086,Newport Municipal Airport,Newport,United States,ONP,44.580399,-124.057999
7087,Emmonak Airport,Emmonak,United States,EMK,62.78609848,-164.49099730000003
7088,Unalakleet Airport,Unalakleet,United States,UNK,63.88840103,-160.798996
7089,Ugnu-Kuparuk Airport,Kuparuk,United States,UUK,70.33080291750001,-149.59800720200002
7090,Shageluk Airport,Shageluk,United States,SHX,62.6922988892,-159.569000244
7091,Chuathbaluk Airport,Chuathbaluk,United States,CHU,61.579102,-159.216003
7092,Nuiqsut Airport,Nuiqsut,United States,NUI,70.2099990845,-151.00599670399998
7093,Eek Airport,Eek,United States,EEK,60.21367264,-162.0438843
7094,Kasigluk Airport,Kasigluk,United States,KUK,60.87440109,-162.5240021
7095,Kwethluk Airport,Kwethluk,United States,KWT,60.790298461899994,-161.444000244
7096,Kwigillingok Airport,Kwigillingok,United States,KWK,59.876499,-163.169005
7097,Marshall Don Hunter Sr Airport,Marshall,United States,MLL,61.8642997742,-162.026000977
7098,Russian Mission Airport,Russian Mission,United States,RSH,61.7788848877,-161.319458008
7101,Koliganek Airport,Koliganek,United States,KGK,59.726600647,-157.259002686
7103,Manokotak Airport,Manokotak,United States,KMO,58.9902000427,-159.050003052
7105,Chalkyitsik Airport,Chalkyitsik,United States,CIK,66.6449966431,-143.74000549299998
7106,Eagle Airport,Eagle,United States,EAA,64.77639771,-141.151001
7107,Hughes Airport,Hughes,United States,HUS,66.04109955,-154.26300049999998
7108,Huslia Airport,Huslia,United States,HSL,65.69789886,-156.3509979
7111,Nulato Airport,Nulato,United States,NUL,64.729301,-158.074005
7114,Venetie Airport,Venetie,United States,VEE,67.0086975098,-146.365997314
7115,Beaver Airport,Beaver,United States,WBQ,66.36219787600001,-147.406997681
7116,Central Airport,Central,United States,CEM,65.57379913,-144.7830048
7117,Shungnak Airport,Shungnak,United States,SHG,66.88809967041,-157.16200256348
7120,Inyokern Airport,Inyokern,United States,IYK,35.65879822,-117.8300018
7121,Visalia Municipal Airport,Visalia,United States,VIS,36.3186988831,-119.392997742
7122,Merced Regional Macready Field,Merced,United States,MCE,37.28469849,-120.5139999
7126,Phoenix Goodyear Airport,Goodyear,United States,GYR,33.4225006104,-112.375999451
7135,Angoon Seaplane Base,Angoon,United States,AGN,57.503601,-134.58500700000002
7136,Elfin Cove Seaplane Base,Elfin Cove,United States,ELV,58.1952018738,-136.347000122
7140,Funter Bay Seaplane Base,Funter Bay,United States,FNR,58.2543983459,-134.897994995
7142,Hoonah Airport,Hoonah,United States,HNH,58.0961,-135.410111
7146,Metlakatla Seaplane Base,Metakatla,United States,MTM,55.131001,-131.578003
7148,Hydaburg Seaplane Base,Hydaburg,United States,HYG,55.206298828125,-132.8280029296875
7154,Egegik Airport,Egegik,United States,EGX,58.1855010986,-157.375
7157,Perryville Airport,Perryville,United States,KPV,55.905998,-159.162993
7158,Pilot Point Airport,Pilot Point,United States,PIP,57.5803985596,-157.572006226
7159,South Naknek Nr 2 Airport,South Naknek,United States,WSN,58.7033996582,-157.007995605
7160,Akhiok Airport,Akhiok,United States,AKK,56.9387016296,-154.182998657
7161,Karluk Airport,Karluk,United States,KYK,57.5671005249,-154.449996948
7162,Larsen Bay Airport,Larsen Bay,United States,KLN,57.535099029499996,-153.977996826
7177,Ambler Airport,Ambler,United States,ABL,67.1063,-157.856989
7178,Buckland Airport,Buckland,United States,BKC,65.9815979004,-161.149002075
7179,Bob Baker Memorial Airport,Kiana,United States,IAN,66.9759979248,-160.43699646
7180,Kobuk Airport,Kobuk,United States,OBU,66.9123001099,-156.897003174
7181,Robert (Bob) Curtis Memorial Airport,Noorvik,United States,ORV,66.81790161,-161.01899719999997
7182,Selawik Airport,Selawik,United States,WLK,66.60009766,-159.9859924
7183,Brevig Mission Airport,Brevig Mission,United States,KTS,65.3312988281,-166.46600341799999
7184,Elim Airport,Elim,United States,ELI,64.61470032,-162.2720032
7185,Golovin Airport,Golovin,United States,GLV,64.5504989624,-163.007003784
7186,Teller Airport,Teller,United States,TLA,65.2404022217,-166.339004517
7187,Wales Airport,Wales,United States,WAA,65.62259300000001,-168.095
7188,White Mountain Airport,White Mountain,United States,WMO,64.689201355,-163.412994385
7190,Koyuk Alfred Adams Airport,Koyuk,United States,KKA,64.9394989014,-161.154006958
7191,St Michael Airport,St. Michael,United States,SMK,63.49010086,-162.1100006
7192,Shaktoolik Airport,Shaktoolik,United States,SKK,64.37110138,-161.223999
7194,Tin City Long Range Radar Station Airport,Tin City,United States,TNC,65.56310272,-167.9219971
7195,Atka Airport,Atka,United States,AKB,52.22029877,-174.2059937
7196,Nikolski Air Station,Nikolski,United States,IKO,52.94160079956055,-168.8489990234375
7198,Yakataga Airport,Yakataga,United States,CYT,60.080974,-142.494541
7199,Alakanuk Airport,Alakanuk,United States,AUK,62.6800422668,-164.65992736799998
7201,Kipnuk Airport,Kipnuk,United States,KPN,59.9329986572,-164.031005859
7202,False Pass Airport,False Pass,United States,KFP,54.8474006652832,-163.41000366210938
7203,Nelson Lagoon Airport,Nelson Lagoon,United States,NLG,56.007499694824,-161.16000366211
7204,Port Moller Airport,Cold Bay,United States,PML,56.0060005188,-160.561004639
7205,Klawock Airport,Klawock,United States,KLW,55.5792007446,-133.076004028
7206,Quinhagak Airport,Quinhagak,United States,KWN,59.7551,-161.845
7207,Kotlik Airport,Kotlik,United States,KOT,63.030601501499994,-163.533004761
7208,Koyukuk Airport,Koyukuk,United States,KYU,64.8760986328,-157.727005005
7209,Scammon Bay Airport,Scammon Bay,United States,SCM,61.84529876710001,-165.570999146
7210,Nondalton Airport,Nondalton,United States,NNL,59.980201721190994,-154.8390045166
7213,Kongiganak Airport,Kongiganak,United States,KKH,59.9608001709,-162.88099670399998
7214,Nikolai Airport,Nikolai,United States,NIB,63.0186,-154.358002
7217,Akiak Airport,Akiak,United States,AKI,60.9029006958,-161.231002808
7220,Wainwright Airport,Wainwright,United States,AIN,70.6380004883,-159.994995117
7233,Chenega Bay Airport,Chenega,United States,NCN,60.0773010254,-147.992004395
7235,Tok Junction Airport,Tok,United States,TKJ,63.32949829,-142.9539948
7236,Circle City /New/ Airport,Circle,United States,IRC,65.83049799999999,-144.076008
7240,Sleetmute Airport,Sleetmute,United States,SLQ,61.7005004883,-157.166000366
7245,Minchumina Airport,Lake Minchumina,United States,LMA,63.88600200000001,-152.30200200000004
7246,Manley Hot Springs Airport,Manley Hot Springs,United States,MLY,64.99759674069999,-150.643997192
7415,Eastern WV Regional Airport/Shepherd Field,Martinsburg,United States,MRB,39.40190125,-77.98459625
7494,Rock Hill - York County Airport,Rock Hill,United States,RKH,34.9878006,-81.05719757
7495,Allegheny County Airport,Pittsburgh,United States,AGC,40.354400634765625,-79.9301986694336
7496,Cecil Airport,Jacksonville,United States,VQQ,30.2187004089,-81.876701355
7497,Fulton County Airport Brown Field,Atlanta,United States,FTY,33.7790985107,-84.5214004517
7511,The Ohio State University Airport - Don Scott Field,Columbus,United States,OSU,40.0798,-83.072998
7513,Addison Airport,Addison,United States,ADS,32.9686012268,-96.8364028931
7514,Destin Executive Airport,Destin,United States,DSI,30.40010071,-86.47149658
7522,Kinston Regional Jetport At Stallings Field,Kinston,United States,ISO,35.331401825,-77.60880279540002
7523,First Flight Airport,Kill Devil Hills,United States,FFA,36.0181999207,-75.67130279540002
7579,Provo Municipal Airport,Provo,United States,PVU,40.219200134277,-111.72299957275
7580,Steamboat Springs Bob Adams Field,Steamboat Springs,United States,SBS,40.5163002,-106.8659973
7581,Delta Municipal Airport,Delta,United States,DTA,39.3805999756,-112.508003235
7583,Carbon County Regional/Buck Davis Field,Price,United States,PUC,39.61389923,-110.7509995
7584,Los Alamos Airport,Los Alamos,United States,LAM,35.8797988892,-106.26899719200001
7586,Lake Havasu City Airport,Lake Havasu City,United States,HII,34.571098,-114.358002
7587,Winslow Lindbergh Regional Airport,Winslow,United States,INW,35.021900177,-110.722999573
7588,Douglas Municipal Airport,Douglas,United States,DGL,31.3425998688,-109.505996704
7621,Bartow Municipal Airport,Bartow,United States,BOW,27.943399429299998,-81.78340148930002
7629,Livermore Municipal Airport,Livermore,United States,LVK,37.6934013367,-121.819999695
7630,Mariposa Yosemite Airport,Mariposa,United States,RMY,37.510898590100005,-120.040000916
7646,Jacqueline Cochran Regional Airport,Palm Springs,United States,TRM,33.62670135498,-116.16000366211
7647,Santa Monica Municipal Airport,Santa Monica,United States,SMO,34.015800476100004,-118.45099639899999
7648,Bermuda Dunes Airport,Palm Springs,United States,UDD,33.748401641846,-116.27500152588
7649,Scottsdale Airport,Scottsdale,United States,SCF,33.622898101806996,-111.91100311279
7650,Olympia Regional Airport,Olympia,United States,OLM,46.9693985,-122.9029999
7652,Garfield County Regional Airport,Rifle,United States,RIL,39.526299,-107.726997
7653,Shively Field,SARATOGA,United States,SAA,41.444901,-106.823997
7654,DeKalb Peachtree Airport,Atlanta,United States,PDK,33.8755989075,-84.3020019531
7655,Monroe County Airport,Bloomington,United States,BMG,39.14599990844727,-86.61669921875
7656,Witham Field,Stuart,United States,SUA,27.18169975,-80.22109985
7657,Morristown Municipal Airport,Morristown,United States,MMU,40.799400329589844,-74.41490173339844
7658,Napa County Airport,Napa,United States,APC,38.2132,-122.280998
7659,Brown Field Municipal Airport,San Diego,United States,SDM,32.572299957275,-116.98000335693001
7662,Venice Municipal Airport,Venice,United States,VNC,27.071599960327,-82.440299987793
7663,Palm Beach County Glades Airport,Pahokee,United States,PHK,26.78499985,-80.69339752
7669,Northwest Florida Beaches International Airport,Panama City,United States,ECP,30.357106,-85.79541400000002
7670,San Bernardino International Airport,San Bernardino,United States,SBD,34.0954017639,-117.23500061
7683,San Carlos Airport,San Carlos,United States,SQL,37.511901855469,-122.25
7690,Rocky Mount Wilson Regional Airport,Rocky Mount,United States,RWI,35.856300354003906,-77.89189910888672
7692,Soldotna Airport,Soldotna,United States,SXQ,60.47570037841797,-151.03399658203125
7693,Gillespie Field,El Cajon,United States,SEE,32.826198577880994,-116.97200012207001
7702,Truckee Tahoe Airport,Truckee,United States,TKF,39.3199996948,-120.13999939
7717,Mission Field,Livingston-Montana,United States,LVM,45.6994018555,-110.44799804700001
7727,Monument Valley Airport,Monument Valley,United States,GMV,37.0167007446,-110.20099639899999
7729,West 30th St. Heliport,New York,United States,JRA,40.754501,-74.007103
7732,Lakeland Linder International Airport,Lakeland,United States,LAL,27.988899,-82.018602
7769,French Valley Airport,Murrieta-Temecula,United States,RBK,33.5741996765,-117.127998352
7776,Dayton-Wright Brothers Airport,Dayton,United States,MGY,39.5890007019,-84.224899292
7778,Findlay Airport,Findley,United States,FDY,41.013500213600004,-83.66870117190001
7809,Black Hills Airport-Clyde Ice Field,Spearfish-South Dakota,United States,SPF,44.48030090332,-103.78299713135
7817,Olive Branch Airport,Olive Branch,United States,OLV,34.9786987305,-89.78690338130001
7822,Rocky Mountain Metropolitan Airport,Broomfield-CO,United States,BJC,39.90879822,-105.11699679999998
7826,Salem Municipal Airport/McNary Field,Salem,United States,SLE,44.90950012,-123.00299840000002
7827,Tunica Municipal Airport,Tunica,United States,UTM,34.680999755859,-90.34670257568399
7839,Lawrence J Timmerman Airport,Milwaukee,United States,MWC,43.110401,-88.034401
7840,Southern Wisconsin Regional Airport,Janesville,United States,JVL,42.620300293,-89.0416030884
7847,Gwinnett County Briscoe Field,Lawrenceville,United States,LZU,33.97809982,-83.96240234
7848,Bowling Green Warren County Regional Airport,Bowling Green,United States,BWG,36.9645004272,-86.41970062259999
7849,Richard Lloyd Jones Jr Airport,Tulsa,United States,RVS,36.039600372314,-95.98459625244101
7857,Bryce Canyon Airport,Bryce Canyon,United States,BCE,37.706401825,-112.144996643
7869,New Century Aircenter Airport,Olathe,United States,JCI,38.830898284899995,-94.890296936
7870,Easton Newnam Field,Easton,United States,ESN,38.8041992188,-76.06900024410002
7875,Yuba County Airport,Yuba City,United States,MYV,39.09780121,-121.5699997
7880,Halliburton Field,Duncan,United States,DUC,34.47090149,-97.9598999
7885,Garner Field,Uvalde,United States,UVA,29.2112998962,-99.74359893799999
7886,Lewis University Airport,Lockport,United States,LOT,41.6072998,-88.09619904
7888,Buchanan Field,Concord,United States,CCR,37.9897003174,-122.056999207
7889,Ocean Reef Club Airport,Ocean Reef Club Airport,United States,OCA,25.325399398804002,-80.274803161621
7907,Ohio University Snyder Field,Athens,United States,ATO,39.2109985352,-82.23139953610001
7908,Springfield-Beckley Municipal Airport,Springfield,United States,SGH,39.840301513671996,-83.840202331543
7925,Philip Billard Municipal Airport,Topeka,United States,TOP,39.068698883056996,-95.62249755859399
7930,Smyrna Airport,Smyrna,United States,MQY,36.0089988708,-86.52010345459999
7931,Franklin County Airport,Sewanee,United States,UOS,35.205101013184,-85.898101806641
7936,Chicago Executive Airport,Chicago-Wheeling,United States,PWK,42.114222,-87.901494
7938,Southwest Washington Regional Airport,Kelso,United States,KLS,46.11800003049999,-122.898002625
7978,Wilmington Airpark,Wilmington,United States,ILN,39.427898407,-83.79209899899999
7979,Marana Regional Airport,Tucson,United States,AVW,32.4095993042,-111.21800231899999
7980,Casa Grande Municipal Airport,Casa Grande,United States,CGZ,32.954899,-111.766998
7982,Buckeye Municipal Airport,Buckeye,United States,BXK,33.42039871,-112.685997
7984,McMinn County Airport,Athens,United States,MMI,35.39730072,-84.56259918
7985,Sterling Municipal Airport,Sterling,United States,STK,40.61529922,-103.2649994
7986,Rawlins Municipal Airport/Harvey Field,Rawlins,United States,RWL,41.80559921,-107.1999969
7990,Essex County Airport,Caldwell,United States,CDW,40.875198364300005,-74.2814025879
7991,Lee C Fine Memorial Airport,Kaiser Lake Ozark,United States,AIZ,38.0960006714,-92.54949951170002
7998,Thomasville Regional Airport,Thomasville,United States,TVI,30.901599884032997,-83.881301879883
7999,Henderson Executive Airport,Henderson,United States,HSH,35.9728012085,-115.134002686
8005,Henry Tift Myers Airport,Tifton,United States,TMA,31.429000854499996,-83.4885025024
8030,Phoenix Deer Valley Airport,Phoenix ,United States,DVT,33.688301086399996,-112.083000183
8034,Republic Airport,Farmingdale,United States,FRG,40.7288017273,-73.41339874270001
8050,McKinley National Park Airport,McKinley Park,United States,MCL,63.7326011658,-148.910995483
8052,Prospect Creek Airport,Prospect Creek,United States,PPC,66.814102172852,-150.64399719238
8062,Wheeling Ohio County Airport,Wheeling,United States,HLG,40.1749992371,-80.6463012695
8077,Aransas County Airport,Rockport,United States,RKP,28.086799621599997,-97.04460144040002
8121,Portland Troutdale Airport,Troutdale,United States,TTD,45.54940032959001,-122.40100097656
8122,Portland Hillsboro Airport,Hillsboro,United States,HIO,45.540401,-122.949997
8135,Burns Municipal Airport,Burns,United States,BNO,43.5918998718,-118.955001831
8136,Prineville Airport,Prineville,United States,PRZ,44.286998748779,-120.90399932861
8137,Red Bluff Municipal Airport,Red Bluff,United States,RBL,40.1506996155,-122.25199890100001
8138,Marin County Airport - Gnoss Field,Novato,United States,NOT,38.143600463867,-122.55599975586
8139,Lake County Airport,Lakeview,United States,LKV,42.1610984802,-120.399002075
8140,Tillamook Airport,Tillamook,United States,OTK,45.4182014465,-123.81400299100001
8141,Ontario Municipal Airport,Ontario,United States,ONO,44.020500183105,-117.01399993896
8142,Columbia Gorge Regional the Dalles Municipal Airport,The Dalles,United States,DLS,45.618499755900004,-121.166999817
8143,Montgomery County Airpark,Gaithersburg,United States,GAI,39.168300628699996,-77.1660003662
8187,Morrisville Stowe State Airport,Morrisville,United States,MVL,44.53459930419999,-72.6139984131
8188,Dallas Executive Airport,Dallas,United States,RBD,32.6809005737,-96.86820220950001
8194,Westerly State Airport,Washington County,United States,WST,41.3496017456,-71.80339813229999
8195,Block Island State Airport,Block Island,United States,BID,41.1680984497,-71.577796936
8199,Nightmute Airport,Nightmute,United States,NME,60.471000671386996,-164.70100402832
8200,Toksook Bay Airport,Toksook Bay,United States,OOK,60.54140091,-165.0870056
8215,Decatur County Industrial Air Park,Bainbridge,United States,BGE,30.9715004,-84.63739777
8220,Whiteman Airport,Los Angeles,United States,WHP,34.2593002319,-118.413002014
8221,Madera Municipal Airport,Madera,United States,MAE,36.9886016846,-120.11199951200001
8252,Apalachicola Regional Airport,Apalachicola,United States,AAF,29.72750092,-85.02749634
8274,St Lucie County International Airport,Fort Pierce,United States,FPR,27.49510002,-80.36830139
8277,Plymouth Municipal Airport,Plymouth,United States,PYM,41.909,-70.728798
8278,Quonset State Airport,North Kingstown,United States,NCO,41.597099304199,-71.412101745605
8280,Norwood Memorial Airport,Norwood,United States,OWD,42.1904983521,-71.1728973389
8281,Westfield-Barnes Regional Airport,Westfield,United States,BAF,42.157799,-72.715599
8283,Orange County Airport,Montgomery,United States,MGJ,41.50999832,-74.26460266
8284,Capital City Airport,Harrisburg,United States,HAR,40.2170982361,-76.85150146480001
8286,Danbury Municipal Airport,Danbury,United States,DXR,41.3714981079,-73.48220062259999
8287,Boire Field,Nashua,United States,ASH,42.781700134299996,-71.51480102539998
8288,Lawrence Municipal Airport,Lawrence,United States,LWM,42.7172012329,-71.1233978271
8289,Waterbury Oxford Airport,Oxford,United States,OXC,41.47859954834,-73.13520050048801
8294,Richard B Russell Airport,Rome,United States,RMG,34.3506011963,-85.15799713130002
8295,Northeast Alabama Regional Airport,Gadsden,United States,GAD,33.972599,-86.088996
8297,Barrow County Airport,Winder,United States,WDR,33.98289871,-83.66739655
8299,Dalton Municipal Airport,Dalton,United States,DNN,34.72290039,-84.87020111
8302,LaGrange Callaway Airport,LaGrange,United States,LGC,33.0089,-85.072601
8305,Harris County Airport,Pine Mountain,United States,PIM,32.8406982422,-84.8824005127
8308,Lee Gilmer Memorial Airport,Gainesville,United States,GVL,34.27259827,-83.8302002
8312,Harry Clever Field,New Philadelpha,United States,PHD,40.470901489258,-81.419700622559
8314,Hilton Head Airport,Hilton Head Island,United States,HHH,32.2243995667,-80.6975021362
8318,Daniel Field,Augusta,United States,DNL,33.4664993286,-82.0393981934
8319,Foothills Regional Airport,Morganton,United States,MRN,35.820202,-81.611397
8320,Pike County-Hatcher Field,Pikeville,United States,PVL,37.5617981,-82.56639862
8322,Toccoa Airport - R.G. Letourneau Field,Toccoa,United States,TOC,34.59379959,-83.29579926
8342,Fort Worth Alliance Airport,Fort Worth,United States,AFW,32.9875984192,-97.3188018799
8366,Lawrence Municipal Airport,Lawrence,United States,LWC,39.01119995,-95.21659851
8379,Pompano Beach Airpark,Pompano Beach,United States,PPM,26.247100830078,-80.11109924316399
8410,London-Corbin Airport/Magee Field,London,United States,LOZ,37.0821990967,-84.08489990230001
8412,Simmons Army Air Field,Fredericksburg,United States,FBG,35.13180161,-78.93669891
8430,John H Batten Airport,Racine,United States,RAC,42.7606010437,-87.8152008057
8446,Tacoma Narrows Airport,Tacoma,United States,TIW,47.26789856,-122.57800290000002
8460,Jack Edwards Airport,Gulf Shores,United States,GUF,30.29050064,-87.67179871
8473,Hazleton Municipal Airport,Hazleton,United States,HZL,40.9868011475,-75.99490356449999
8474,Greater Cumberland Regional Airport,Cumberland,United States,CBE,39.615398407,-78.76090240479999
8493,Tri-County Regional Airport,Lone Rock,United States,LNR,43.2117004395,-90.18160247799999
8496,Joliet Regional Airport,Joliet,United States,JOT,41.51779938,-88.17549896
8497,Illinois Valley Regional Airport-Walter A Duncan Field,Peru,United States,VYS,41.351898,-89.153099
8499,Jackson County Reynolds Field,Jackson,United States,JXN,42.2597999573,-84.45939636230001
8504,Wings Field,Philadelphia,United States,BBX,40.1375007629,-75.26509857180001
8505,Okeechobee County Airport,Okeechobee,United States,OBE,27.2628002167,-80.8498001099
8506,Sebring Regional Airport,Sebring,United States,SEF,27.45639992,-81.3423996
8507,Avon Park Executive Airport,Avon Park,United States,AVO,27.59119987,-81.52780151
8508,Winter Haven Regional Airport - Gilbert Field,Winter Haven,United States,GIF,28.062901,-81.753304
8509,Zephyrhills Municipal Airport,Zephyrhills,United States,ZPH,28.2282009125,-82.15589904790002
8510,Ocala International Airport - Jim Taylor Field,Ocala,United States,OCF,29.17259979,-82.22419739
8515,Aiken Regional Airport,Aiken,United States,AIK,33.649399,-81.684998
8516,Woodward Field,Camden,United States,CDN,34.2835998535,-80.56490325930001
8517,Lumberton Regional Airport,Lumberton,United States,LBT,34.609901428200004,-79.05940246579998
8519,Moore County Airport,Pinehurst-Southern Pines,United States,SOP,35.23740005,-79.39119720000002
8526,Statesville Regional Airport,Statesville,United States,SVH,35.765300750732,-80.953903198242
8532,William T. Piper Memorial Airport,Lock Haven,United States,LHV,41.13560104,-77.42230225
8544,Burke Lakefront Airport,Cleveland,United States,BKL,41.51750183105469,-81.68329620361328
8545,Chautauqua County-Dunkirk Airport,Dunkirk,United States,DKK,42.49330139,-79.27200317
8548,South Jersey Regional Airport,Mount Holly,United States,LLY,39.9429016113,-74.845703125
8550,Linden Airport,Linden,United States,LDJ,40.617401123,-74.2445983887
8553,Tri State Steuben County Airport,Angola,United States,ANQ,41.639702,-85.083504
8565,Clearwater Air Park,Clearwater,United States,CLW,27.9766998291,-82.7586975098
8593,Chicago Meigs Airport,Chicago,United States,CGX,41.85879898071289,-87.60790252685547
8604,Grand Strand Airport,North Myrtle Beach,United States,CRE,33.811698913600004,-78.72389984130002
8625,Wilkes Barre Wyoming Valley Airport,Wilkes-Barre,United States,WBW,41.2971992493,-75.8511962891
8626,Willoughby Lost Nation Municipal Airport,Willoughby,United States,LNN,41.6839981079,-81.3897018433
8631,Capital City Airport,Frankfort,United States,FFT,38.18249893,-84.90470123
8632,Auburn Lewiston Municipal Airport,Lewiston,United States,LEW,44.048500061000006,-70.2835006714
8641,Marco Island Executive Airport,Marco Island Airport,United States,MRK,25.995001,-81.672501
8644,Drummond Island Airport,Drummond Island,United States,DRE,46.0093002319,-83.74389648440001
8646,Gladwin Zettel Memorial Airport,Gladwin,United States,GDW,43.9706001282,-84.47499847410002
8653,Marshfield Municipal Airport,Marshfield,United States,MFI,44.6369018555,-90.1893005371
8654,Alexander Field South Wood County Airport,Wisconsin Rapids,United States,ISW,44.360298156700004,-89.83899688720001
8655,Clinton Municipal Airport,Clinton,United States,CWI,41.8311004639,-90.3291015625
8658,Beverly Municipal Airport,Beverly,United States,BVY,42.5842018127,-70.91649627689999
8664,Poplar Bluff Municipal Airport,Poplar Bluff,United States,POF,36.773899078369006,-90.324897766113
8667,Keokuk Municipal Airport,Keokuk,United States,EOK,40.4598999023,-91.4284973145
8681,St Paul Downtown Holman Field,St. Paul,United States,STP,44.93450164794922,-93.05999755859376
8706,Butler Co Regional Airport - Hogan Field,Hamilton,United States,HAO,39.3638000488,-84.5220031738
8742,Fond du Lac County Airport,Fond du Lac,United States,FLD,43.771198272700005,-88.48840332030001
8744,Stevens Point Municipal Airport,Stevens Point,United States,STE,44.5452003479,-89.53029632568398
8759,Galion Municipal Airport,Galion,United States,GQQ,40.7533988953,-82.7238006592
8763,Clarksville–Montgomery County Regional Airport,Clarksville,United States,CKV,36.621898651100004,-87.41500091549999
8771,Lompoc Airport,Lompoc,United States,LPC,34.665599823,-120.46800231899999
8772,Chester County G O Carlson Airport,Coatesville,United States,CTH,39.97900009,-75.86550140000001
8777,Lake Placid Airport,Lake Placid,United States,LKP,44.264499664300004,-73.96189880370002
8784,Lima Allen County Airport,Lima,United States,AOH,40.706902,-84.026703
8789,Malcolm McKinnon Airport,Brunswick,United States,SSI,31.15180016,-81.39129639
8790,Beaver County Airport,Beaver Falls,United States,BFP,40.7724990845,-80.39140319820001
8792,Georgetown County Airport,Georgetown,United States,GGE,33.311698913600004,-79.3196029663
8793,Hardwick Field,Cleveland,United States,HDI,35.22010040283203,-84.8323974609375
8796,Renton Municipal Airport,Renton,United States,RNT,47.4930992126,-122.21600341799999
8798,Brackett Field,La Verne,United States,POC,34.091598510742,-117.78199768066
8801,Cross City Airport,Cross City,United States,CTY,29.6354999542,-83.10479736330002
8802,Oconee County Regional Airport,Clemson,United States,CEU,34.67190170000001,-82.8864975
8804,Beech Factory Airport,Wichita,United States,BEC,37.6944999695,-97.2149963379
8815,Sidney Municipal-Lloyd W Carr Field,Sidney,United States,SNY,41.10129929,-102.9850006
8824,Kalaeloa Airport,Kapolei,United States,JRF,21.3074,-158.070009
8833,Iosco County Airport,East Tawas,United States,ECA,44.312801,-83.422302
8854,Boulder Municipal Airport,Boulder,United States,WBU,40.039398193400004,-105.225997925
8864,Palo Alto Airport of Santa Clara County,Palo Alto,United States,PAO,37.461101532,-122.114997864
8869,Falcon Field,Mesa,United States,MSC,33.4608001709,-111.72799682600001
8877,Oakland County International Airport,Pontiac,United States,PTK,42.665500640869006,-83.420097351074
8888,Dillant Hopkins Airport,Keene,United States,EEN,42.898399353027344,-72.27079772949219
8925,Iowa City Municipal Airport,Iowa City,United States,IOW,41.639198303200004,-91.5465011597
8935,Lee Airport,Annapolis,United States,ANP,38.942902,-76.568398
8950,Pecos Municipal Airport,Pecos,United States,PEQ,31.382400512694996,-103.51100158691
8951,Hattiesburg Bobby L Chain Municipal Airport,Hattiesburg,United States,HBG,31.26479912,-89.25279999
8958,Chan Gurney Municipal Airport,Yankton,United States,YKN,42.916698455811,-97.385902404785
8982,Hayward Executive Airport,Hayward,United States,HWD,37.659198761,-122.122001648
8989,Ann Arbor Municipal Airport,Ann Arbor,United States,ARB,42.2229995728,-83.74559783939999
9071,Alameda Naval Air Station,Alameda,United States,NGZ,37.78889846801758,-122.31999969482422
9102,Immokalee Regional Airport,Immokalee ,United States,IMM,26.43320084,-81.40100098
9120,Dinwiddie County Airport,Petersburg,United States,PTB,37.183799743652,-77.507400512695
9126,Sheboygan County Memorial Airport,Sheboygan,United States,SBM,43.76959991,-87.85140228
9138,Pinal Airpark,Marana,United States,MZJ,32.5106010437,-111.32800293
9140,Safford Regional Airport,Safford,United States,SAD,32.85480118,-109.6350021
9164,Sikeston Memorial Municipal Airport,Sikeston,United States,SIK,36.898899078369006,-89.561798095703
9178,Floyd Bennett Memorial Airport,Queensbury,United States,GFL,43.3412017822,-73.6102981567
9183,Martin State Airport,Baltimore,United States,MTN,39.325699,-76.413803
9186,Eastern Slopes Regional Airport,Fryeburg,United States,FRY,43.9911003113,-70.94789886470001
9188,Lakefront Airport,New Orleans,United States,NEW,30.042400360107003,-90.02829742431602
9189,Coeur D'Alene - Pappy Boyington Field,Coeur d'Alene,United States,COE,47.77429962,-116.8199997
9190,Beaumont Municipal Airport,Beaumont,United States,BMT,30.070699691799998,-94.21579742430002
9191,Vermilion Regional Airport,Danville,United States,DNV,40.19919968,-87.59590149
9199,Space Coast Regional Airport,Titusville,United States,TIX,28.514799118042003,-80.799201965332
9225,Andrau Airpark,Houston,United States,AAP,29.722499847399998,-95.5883026123
9226,Flying Cloud Airport,Eden Prairie,United States,FCM,44.827201843299996,-93.4570999146
